{"stationName": "CHEMAINUS","lat": "48.935","lon": "-123.742","province": "BC","tm": "8.2","dwtm": "0","d": "NA","tx": "13.5","dwtx": "0","tn": "1","dwtn": "0","s": "0","dws": "0","sn": "NA","p": "178.8","dwp": "0","pn": "NA","sq": "0","pd": "12","bs": "","dwbs": "","psPercent": "NA","hdd": "273.3","cdd": "0","stationNumber": "1011500"}
{"stationName": "COWICHAN LAKE FORESTRY","lat": "48.824","lon": "-124.133","province": "BC","tm": "7","dwtm": "0","d": "3","tx": "15","dwtx": "0","tn": "-3","dwtn": "0","s": "0","dws": "0","sn": "0","p": "258.6","dwp": "0","pn": "104","sq": "0","pd": "12","bs": "","dwbs": "","psPercent": "NA","hdd": "307","cdd": "0","stationNumber": "1012040"}
{"stationName": "LAKE COWICHAN","lat": "48.829","lon": "-124.052","province": "BC","tm": "6.8","dwtm": "13","d": "2.8","tx": "16","dwtx": "9","tn": "-2.5","dwtn": "9","s": "0","dws": "9","sn": "NA","p": "264.6","dwp": "9","pn": "NA","sq": "","pd": "11","bs": "","dwbs": "","psPercent": "NA","hdd": "168.1","cdd": "0","stationNumber": "1012055"}
{"stationName": "DISCOVERY ISLAND","lat": "48.425","lon": "-123.226","province": "BC","tm": "","dwtm": "","d": "NA","tx": "12.5","dwtx": "0","tn": "","dwtn": "","s": "","dws": "","sn": "NA","p": "","dwp": "","pn": "NA","sq": "","pd": "","bs": "","dwbs": "","psPercent": "NA","hdd": "","cdd": "","stationNumber": "1012475"}
{"stationName": "DUNCAN KELVIN CREEK","lat": "48.735","lon": "-123.728","province": "BC","tm": "7.7","dwtm": "2","d": "3.4","tx": "14.5","dwtx": "2","tn": "-1","dwtn": "2","s": "0","dws": "2","sn": "NA","p": "168.4","dwp": "2","pn": "NA","sq": "","pd": "11","bs": "","dwbs": "","psPercent": "NA","hdd": "267.7","cdd": "0","stationNumber": "1012573"}
{"stationName": "ESQUIMALT HARBOUR","lat": "48.432","lon": "-123.439","province": "BC","tm": "8.8","dwtm": "0","d": "NA","tx": "13.1","dwtx": "0","tn": "1.9","dwtn": "0","s": "","dws": "","sn": "NA","p": "81","dwp": "8","pn": "NA","sq": "","pd": "12","bs": "","dwbs": "","psPercent": "NA","hdd": "258.6","cdd": "0","stationNumber": "1012710"}
{"stationName": "GALIANO NORTH","lat": "48.985","lon": "-123.573","province": "BC","tm": "8.9","dwtm": "7","d": "NA","tx": "13.5","dwtx": "7","tn": "2","dwtn": "7","s": "0","dws": "7","sn": "NA","p": "110","dwp": "7","pn": "NA","sq": "0","pd": "10","bs": "","dwbs": "","psPercent": "NA","hdd": "191.7","cdd": "0","stationNumber": "10130MN"}
{"stationName": "MALAHAT","lat": "48.575","lon": "-123.53","province": "BC","tm": "7.2","dwtm": "1","d": "NA","tx": "12.7","dwtx": "1","tn": "2.2","dwtn": "0","s": "","dws": "","sn": "NA","p": "108.8","dwp": "10","pn": "NA","sq": "","pd": "12","bs": "","dwbs": "","psPercent": "NA","hdd": "290.8","cdd": "0","stationNumber": "1014820"}
{"stationName": "METCHOSIN","lat": "48.374","lon": "-123.561","province": "BC","tm": "","dwtm": "","d": "NA","tx": "","dwtx": "","tn": "","dwtn": "","s": "0","dws": "0","sn": "0","p": "102.6","dwp": "0","pn": "95","sq": "0","pd": "16","bs": "","dwbs": "","psPercent": "NA","hdd": "","cdd": "","stationNumber": "1015105"}
{"stationName": "NORTH COWICHAN","lat": "48.824","lon": "-123.718","province": "BC","tm": "","dwtm": "","d": "NA","tx": "","dwtx": "","tn": "","dwtn": "","s": "0","dws": "0","sn": "0","p": "142.8","dwp": "0","pn": "114","sq": "0","pd": "13","bs": "","dwbs": "","psPercent": "NA","hdd": "","cdd": "","stationNumber": "1015628"}
{"stationName": "NORTH COWICHAN","lat": "48.824","lon": "-123.719","province": "BC","tm": "7.7","dwtm": "0","d": "NA","tx": "14.7","dwtx": "0","tn": "-2.6","dwtn": "0","s": "","dws": "","sn": "NA","p": "132.8","dwp": "0","pn": "NA","sq": "0","pd": "12","bs": "","dwbs": "","psPercent": "NA","hdd": "288.8","cdd": "0","stationNumber": "1015630"}
{"stationName": "NORTH PENDER ISLAND","lat": "48.764","lon": "-123.287","province": "BC","tm": "8.6","dwtm": "1","d": "NA","tx": "14","dwtx": "1","tn": "2","dwtn": "1","s": "0","dws": "1","sn": "NA","p": "91.1","dwp": "1","pn": "NA","sq": "0","pd": "13","bs": "","dwbs": "","psPercent": "NA","hdd": "253.6","cdd": "0","stationNumber": "1015638"}
{"stationName": "RACE ROCKS","lat": "48.298","lon": "-123.531","province": "BC","tm": "9.6","dwtm": "0","d": "NA","tx": "15.6","dwtx": "0","tn": "5.2","dwtn": "0","s": "","dws": "","sn": "NA","p": "","dwp": "","pn": "NA","sq": "","pd": "","bs": "","dwbs": "","psPercent": "NA","hdd": "234.7","cdd": "0","stationNumber": "1016640"}
{"stationName": "SAANICHTON CDA","lat": "48.622","lon": "-123.419","province": "BC","tm": "8.1","dwtm": "0","d": "2.8","tx": "14","dwtx": "0","tn": "-1","dwtn": "0","s": "0","dws": "0","sn": "0","p": "116.5","dwp": "0","pn": "130","sq": "0","pd": "13","bs": "","dwbs": "","psPercent": "NA","hdd": "277.8","cdd": "0","stationNumber": "1016940"}
{"stationName": "SALTSPRING ST MARY'S L","lat": "48.888","lon": "-123.546","province": "BC","tm": "8.3","dwtm": "1","d": "3.3","tx": "14.5","dwtx": "1","tn": "1","dwtn": "1","s": "0","dws": "1","sn": "NA","p": "104.3","dwp": "1","pn": "NA","sq": "0","pd": "11","bs": "","dwbs": "","psPercent": "NA","hdd": "262.9","cdd": "0","stationNumber": "1016995"}
{"stationName": "SAANICHTON MT NEWTON","lat": "48.598","lon": "-123.427","province": "BC","tm": "","dwtm": "","d": "NA","tx": "","dwtx": "","tn": "","dwtn": "","s": "0","dws": "21","sn": "NA","p": "67.8","dwp": "21","pn": "NA","sq": "","pd": "7","bs": "","dwbs": "","psPercent": "NA","hdd": "","cdd": "","stationNumber": "1016RM0"}
{"stationName": "SATURNA CAPMON","lat": "48.775","lon": "-123.128","province": "BC","tm": "7.8","dwtm": "0","d": "2.8","tx": "12.9","dwtx": "0","tn": "2","dwtn": "0","s": "0","dws": "0","sn": "0","p": "77.2","dwp": "0","pn": "120","sq": "0","pd": "14","bs": "","dwbs": "","psPercent": "NA","hdd": "285.6","cdd": "0","stationNumber": "1017098"}
{"stationName": "SATURNA CAPMON CS","lat": "48.775","lon": "-123.128","province": "BC","tm": "7.6","dwtm": "0","d": "NA","tx": "12.7","dwtx": "0","tn": "2.1","dwtn": "0","s": "","dws": "","sn": "NA","p": "72.5","dwp": "1","pn": "NA","sq": "","pd": "13","bs": "","dwbs": "","psPercent": "NA","hdd": "291.5","cdd": "0","stationNumber": "1017099"}
{"stationName": "SATURNA ISLAND CS","lat": "48.784","lon": "-123.045","province": "BC","tm": "8.7","dwtm": "1","d": "NA","tx": "13.7","dwtx": "1","tn": "4.1","dwtn": "0","s": "","dws": "","sn": "NA","p": "65","dwp": "2","pn": "NA","sq": "","pd": "12","bs": "","dwbs": "","psPercent": "NA","hdd": "250.4","cdd": "0","stationNumber": "1017101"}
{"stationName": "SHAWNIGAN LAKE","lat": "48.647","lon": "-123.626","province": "BC","tm": "7.1","dwtm": "0","d": "3","tx": "14","dwtx": "0","tn": "-1.5","dwtn": "0","s": "0","dws": "0","sn": "0","p": "158.8","dwp": "0","pn": "118","sq": "0","pd": "15","bs": "","dwbs": "","psPercent": "NA","hdd": "304.5","cdd": "0","stationNumber": "1017230"}
{"stationName": "SHERINGHAM POINT","lat": "48.377","lon": "-123.921","province": "BC","tm": "9.5","dwtm": "1","d": "NA","tx": "14.4","dwtx": "1","tn": "5.1","dwtn": "0","s": "","dws": "","sn": "NA","p": "128.6","dwp": "1","pn": "NA","sq": "","pd": "15","bs": "","dwbs": "","psPercent": "NA","hdd": "228.2","cdd": "0","stationNumber": "1017254"}
{"stationName": "VICTORIA UNIVERSITY CS","lat": "48.457","lon": "-123.305","province": "BC","tm": "8.3","dwtm": "1","d": "NA","tx": "14.9","dwtx": "1","tn": "0","dwtn": "0","s": "","dws": "","sn": "NA","p": "82.6","dwp": "8","pn": "NA","sq": "","pd": "14","bs": "","dwbs": "","psPercent": "NA","hdd": "261.6","cdd": "0","stationNumber": "1018598"}
{"stationName": "VICTORIA FRANCIS PARK","lat": "48.476","lon": "-123.443","province": "BC","tm": "","dwtm": "","d": "NA","tx": "","dwtx": "","tn": "","dwtn": "","s": "0","dws": "18","sn": "NA","p": "70","dwp": "18","pn": "NA","sq": "","pd": "10","bs": "","dwbs": "","psPercent": "NA","hdd": "","cdd": "","stationNumber": "1018605"}
{"stationName": "VICTORIA GONZALES CS","lat": "48.413","lon": "-123.325","province": "BC","tm": "8.9","dwtm": "0","d": "NA","tx": "13.4","dwtx": "0","tn": "3.4","dwtn": "0","s": "","dws": "","sn": "NA","p": "71.6","dwp": "8","pn": "NA","sq": "","pd": "12","bs": "","dwbs": "","psPercent": "NA","hdd": "255","cdd": "0","stationNumber": "1018611"}
{"stationName": "VICTORIA HIGHLANDS NORTH","lat": "48.538","lon": "-123.501","province": "BC","tm": "8.1","dwtm": "14","d": "NA","tx": "13.3","dwtx": "13","tn": "1.8","dwtn": "12","s": "0","dws": "13","sn": "NA","p": "113.6","dwp": "13","pn": "NA","sq": "","pd": "14","bs": "","dwbs": "","psPercent": "NA","hdd": "139.3","cdd": "0","stationNumber": "1018618"}
{"stationName": "VICTORIA INTL A","lat": "48.647","lon": "-123.426","province": "BC","tm": "7.8","dwtm": "0","d": "NA","tx": "14.4","dwtx": "0","tn": "-0.5","dwtn": "0","s": "0","dws": "0","sn": "NA","p": "112","dwp": "0","pn": "NA","sq": "","pd": "14","bs": "","dwbs": "","psPercent": "NA","hdd": "285.7","cdd": "0","stationNumber": "1018621"}
{"stationName": "WILLIAM HEAD","lat": "48.34","lon": "-123.539","province": "BC","tm": "9.2","dwtm": "1","d": "3","tx": "14","dwtx": "1","tn": "3.5","dwtn": "1","s": "0","dws": "1","sn": "NA","p": "83.9","dwp": "1","pn": "NA","sq": "0","pd": "14","bs": "","dwbs": "","psPercent": "NA","hdd": "238.6","cdd": "0","stationNumber": "1018935"}
{"stationName": "BALLENAS ISLAND","lat": "49.35","lon": "-124.16","province": "BC","tm": "8.1","dwtm": "0","d": "NA","tx": "13.7","dwtx": "0","tn": "4","dwtn": "0","s": "","dws": "","sn": "NA","p": "103","dwp": "2","pn": "NA","sq": "","pd": "12","bs": "","dwbs": "","psPercent": "NA","hdd": "277.5","cdd": "0","stationNumber": "1020590"}
{"stationName": "CAMPBELL RIVER A","lat": "49.952","lon": "-125.273","province": "BC","tm": "6.3","dwtm": "1","d": "3","tx": "14.4","dwtx": "1","tn": "-5","dwtn": "1","s": "0","dws": "1","sn": "NA","p": "154.2","dwp": "1","pn": "NA","sq": "0","pd": "15","bs": "","dwbs": "","psPercent": "NA","hdd": "317.2","cdd": "0","stationNumber": "1021261"}
{"stationName": "CAMPBELL RIVER SURFSIDE","lat": "49.945","lon": "-125.208","province": "BC","tm": "","dwtm": "","d": "","tx": "","dwtx": "","tn": "","dwtn": "","s": "0","dws": "0","sn": "0","p": "146.4","dwp": "0","pn": "99","sq": "0","pd": "15","bs": "","dwbs": "","psPercent": "NA","hdd": "","cdd": "","stationNumber": "1021266"}
{"stationName": "CAPE MUDGE","lat": "49.998","lon": "-125.195","province": "BC","tm": "7.9","dwtm": "2","d": "3.3","tx": "16","dwtx": "2","tn": "1.5","dwtn": "2","s": "0","dws": "2","sn": "NA","p": "73.6","dwp": "2","pn": "NA","sq": "0","pd": "12","bs": "","dwbs": "","psPercent": "NA","hdd": "263.1","cdd": "0","stationNumber": "1021330"}
{"stationName": "CHATHAM POINT","lat": "50.333","lon": "-125.446","province": "BC","tm": "7.8","dwtm": "1","d": "3.2","tx": "12","dwtx": "1","tn": "1.5","dwtn": "1","s": "0","dws": "1","sn": "NA","p": "192","dwp": "1","pn": "NA","sq": "0","pd": "14","bs": "","dwbs": "","psPercent": "NA","hdd": "276.3","cdd": "0","stationNumber": "1021480"}
{"stationName": "CHROME ISLAND","lat": "49.472","lon": "-124.683","province": "BC","tm": "8.3","dwtm": "0","d": "NA","tx": "14","dwtx": "0","tn": "2.5","dwtn": "0","s": "0","dws": "0","sn": "NA","p": "234.8","dwp": "0","pn": "NA","sq": "0","pd": "16","bs": "","dwbs": "","psPercent": "NA","hdd": "270.4","cdd": "0","stationNumber": "1021500"}
{"stationName": "COMOX A","lat": "49.717","lon": "-124.9","province": "BC","tm": "7.4","dwtm": "0","d": "3.1","tx": "13.5","dwtx": "0","tn": "-1.1","dwtn": "0","s": "0","dws": "0","sn": "0","p": "173.3","dwp": "0","pn": "152","sq": "","pd": "11","bs": "","dwbs": "","psPercent": "NA","hdd": "296.9","cdd": "0","stationNumber": "1021830"}
{"stationName": "CORTES ISLAND TIBER BAY","lat": "50.071","lon": "-124.949","province": "BC","tm": "8.5","dwtm": "14","d": "NA","tx": "14.4","dwtx": "14","tn": "-1.5","dwtn": "14","s": "0","dws": "14","sn": "NA","p": "100","dwp": "14","pn": "NA","sq": "0","pd": "12","bs": "","dwbs": "","psPercent": "NA","hdd": "132.8","cdd": "0","stationNumber": "1021960"}
{"stationName": "COURTENAY GRANTHAM","lat": "49.763","lon": "-124.999","province": "BC","tm": "7.6","dwtm": "6","d": "NA","tx": "13.5","dwtx": "6","tn": "0.5","dwtn": "6","s": "0","dws": "6","sn": "NA","p": "140.1","dwp": "6","pn": "NA","sq": "","pd": "13","bs": "","dwbs": "","psPercent": "NA","hdd": "229.2","cdd": "0","stationNumber": "1021988"}
{"stationName": "COURTENAY PUNTLEDGE","lat": "49.686","lon": "-125.033","province": "BC","tm": "6.9","dwtm": "7","d": "NA","tx": "16","dwtx": "4","tn": "-3","dwtn": "4","s": "0","dws": "4","sn": "NA","p": "152.1","dwp": "4","pn": "NA","sq": "0","pd": "13","bs": "","dwbs": "","psPercent": "NA","hdd": "232.6","cdd": "0","stationNumber": "1021989"}
{"stationName": "ENTRANCE ISLAND","lat": "49.209","lon": "-123.811","province": "BC","tm": "8.3","dwtm": "0","d": "NA","tx": "13.2","dwtx": "0","tn": "4.5","dwtn": "0","s": "","dws": "","sn": "NA","p": "84.4","dwp": "0","pn": "NA","sq": "","pd": "12","bs": "","dwbs": "","psPercent": "NA","hdd": "271.1","cdd": "0","stationNumber": "1022689"}
{"stationName": "FANNY ISLAND","lat": "50.454","lon": "-125.993","province": "BC","tm": "8.3","dwtm": "0","d": "NA","tx": "12.5","dwtx": "0","tn": "2.4","dwtn": "0","s": "","dws": "","sn": "NA","p": "167.6","dwp": "7","pn": "NA","sq": "","pd": "15","bs": "","dwbs": "","psPercent": "NA","hdd": "272","cdd": "0","stationNumber": "1022795"}
{"stationName": "HERIOT BAY SE","lat": "50.099","lon": "-125.203","province": "BC","tm": "7.4","dwtm": "4","d": "NA","tx": "13","dwtx": "4","tn": "0.5","dwtn": "4","s": "0","dws": "4","sn": "NA","p": "164.8","dwp": "4","pn": "NA","sq": "0","pd": "15","bs": "","dwbs": "","psPercent": "NA","hdd": "254.2","cdd": "0","stationNumber": "1023462"}
{"stationName": "LITTLE QUALICUM HATCHERY","lat": "49.353","lon": "-124.512","province": "BC","tm": "6.6","dwtm": "0","d": "2.9","tx": "13.5","dwtx": "0","tn": "-4","dwtn": "0","s": "0","dws": "0","sn": "0","p": "167.9","dwp": "0","pn": "147","sq": "0","pd": "13","bs": "","dwbs": "","psPercent": "NA","hdd": "319.1","cdd": "0","stationNumber": "1024638"}
{"stationName": "MUD BAY","lat": "49.471","lon": "-124.794","province": "BC","tm": "7.5","dwtm": "1","d": "3.5","tx": "14","dwtx": "1","tn": "-1","dwtn": "0","s": "0","dws": "0","sn": "0","p": "299.4","dwp": "0","pn": "160","sq": "0","pd": "15","bs": "","dwbs": "","psPercent": "NA","hdd": "283","cdd": "0","stationNumber": "1025240"}
{"stationName": "MYRA CREEK","lat": "49.576","lon": "-125.606","province": "BC","tm": "5.8","dwtm": "4","d": "NA","tx": "12","dwtx": "2","tn": "-1.5","dwtn": "2","s": "0","dws": "2","sn": "NA","p": "437.2","dwp": "2","pn": "NA","sq": "0","pd": "15","bs": "","dwbs": "","psPercent": "NA","hdd": "292","cdd": "0","stationNumber": "1025254"}
{"stationName": "NANAIMO A","lat": "49.054","lon": "-123.87","province": "BC","tm": "7.4","dwtm": "0","d": "3.2","tx": "14.9","dwtx": "0","tn": "-2.9","dwtn": "0","s": "0","dws": "0","sn": "0","p": "149.9","dwp": "0","pn": "119","sq": "0","pd": "13","bs": "","dwbs": "","psPercent": "NA","hdd": "295.5","cdd": "0","stationNumber": "1025370"}
{"stationName": "NANAIMO CITY YARD","lat": "49.199","lon": "-123.988","province": "BC","tm": "","dwtm": "","d": "NA","tx": "","dwtx": "","tn": "","dwtn": "","s": "0","dws": "0","sn": "0","p": "162.4","dwp": "0","pn": "141","sq": "0","pd": "12","bs": "","dwbs": "","psPercent": "NA","hdd": "","cdd": "","stationNumber": "10253G0"}
{"stationName": "PORT HARDY A","lat": "50.681","lon": "-127.367","province": "BC","tm": "6.7","dwtm": "0","d": "NA","tx": "14.9","dwtx": "0","tn": "-2.9","dwtn": "0","s": "0","dws": "0","sn": "NA","p": "118.4","dwp": "0","pn": "NA","sq": "","pd": "15","bs": "","dwbs": "","psPercent": "NA","hdd": "316.2","cdd": "0","stationNumber": "1026271"}
{"stationName": "QUALICUM BEACH AIRPORT","lat": "49.337","lon": "-124.394","province": "BC","tm": "7.3","dwtm": "0","d": "NA","tx": "14.8","dwtx": "0","tn": "-1.6","dwtn": "0","s": "","dws": "","sn": "NA","p": "125","dwp": "0","pn": "NA","sq": "0","pd": "12","bs": "","dwbs": "","psPercent": "NA","hdd": "299.5","cdd": "0","stationNumber": "1026562"}
{"stationName": "QUALICUM R FISH RESEARCH","lat": "49.394","lon": "-124.617","province": "BC","tm": "7.4","dwtm": "2","d": "3.3","tx": "14.5","dwtx": "2","tn": "-1","dwtn": "2","s": "0","dws": "2","sn": "NA","p": "171.2","dwp": "2","pn": "NA","sq": "0","pd": "11","bs": "","dwbs": "","psPercent": "NA","hdd": "274.6","cdd": "0","stationNumber": "1026565"}
{"stationName": "QUINSAM RIVER HATCHERY","lat": "50.016","lon": "-125.304","province": "BC","tm": "7","dwtm": "0","d": "3.2","tx": "15","dwtx": "0","tn": "-2.5","dwtn": "0","s": "0","dws": "0","sn": "0","p": "165.6","dwp": "0","pn": "103","sq": "0","pd": "16","bs": "","dwbs": "","psPercent": "NA","hdd": "308.6","cdd": "0","stationNumber": "1026639"}
{"stationName": "SISTERS ISLAND","lat": "49.487","lon": "-124.435","province": "BC","tm": "8.6","dwtm": "0","d": "NA","tx": "14.2","dwtx": "0","tn": "4.5","dwtn": "0","s": "","dws": "","sn": "NA","p": "","dwp": "","pn": "NA","sq": "","pd": "","bs": "","dwbs": "","psPercent": "NA","hdd": "263.2","cdd": "0","stationNumber": "1027403"}
{"stationName": "ENTRANCE ISLAND","lat": "49.209","lon": "-123.809","province": "BC","tm": "8.3","dwtm": "6","d": "NA","tx": "13","dwtx": "6","tn": "3.5","dwtn": "6","s": "0","dws": "6","sn": "NA","p": "107.2","dwp": "6","pn": "NA","sq": "0","pd": "11","bs": "","dwbs": "","psPercent": "NA","hdd": "213.6","cdd": "0","stationNumber": "102BFHH"}
{"stationName": "ALBERNI ROBERTSON CREEK","lat": "49.337","lon": "-124.982","province": "BC","tm": "7.2","dwtm": "3","d": "4.1","tx": "18","dwtx": "3","tn": "-5","dwtn": "3","s": "0","dws": "3","sn": "NA","p": "139.4","dwp": "3","pn": "NA","sq": "0","pd": "11","bs": "","dwbs": "","psPercent": "NA","hdd": "271","cdd": "0","stationNumber": "1030230"}
{"stationName": "CAPE BEALE LIGHT","lat": "48.786","lon": "-125.216","province": "BC","tm": "9.5","dwtm": "1","d": "3.5","tx": "15","dwtx": "1","tn": "4.5","dwtn": "1","s": "0","dws": "1","sn": "NA","p": "220.4","dwp": "1","pn": "NA","sq": "0","pd": "14","bs": "","dwbs": "","psPercent": "NA","hdd": "228.2","cdd": "0","stationNumber": "1031316"}
{"stationName": "CARMANAH POINT","lat": "48.612","lon": "-124.751","province": "BC","tm": "","dwtm": "","d": "NA","tx": "","dwtx": "","tn": "","dwtn": "","s": "0","dws": "0","sn": "0","p": "210.8","dwp": "0","pn": "69","sq": "0","pd": "16","bs": "","dwbs": "","psPercent": "NA","hdd": "","cdd": "","stationNumber": "1031402"}
{"stationName": "ESTEVAN POINT","lat": "49.383","lon": "-126.543","province": "BC","tm": "8.9","dwtm": "0","d": "2.9","tx": "13.5","dwtx": "0","tn": "2","dwtn": "0","s": "0","dws": "0","sn": "0","p": "237.3","dwp": "0","pn": "76","sq": "0","pd": "15","bs": "","dwbs": "","psPercent": "NA","hdd": "255.6","cdd": "0","stationNumber": "1032730"}
{"stationName": "ESTEVAN POINT CS","lat": "49.383","lon": "-126.543","province": "BC","tm": "8.7","dwtm": "0","d": "NA","tx": "14","dwtx": "0","tn": "2.3","dwtn": "0","s": "","dws": "","sn": "NA","p": "223.3","dwp": "0","pn": "NA","sq": "","pd": "16","bs": "","dwbs": "","psPercent": "NA","hdd": "260.1","cdd": "0","stationNumber": "1032731"}
{"stationName": "GOLD RIVER TOWNSITE","lat": "49.779","lon": "-126.055","province": "BC","tm": "7.5","dwtm": "0","d": "4.2","tx": "16","dwtx": "0","tn": "-3","dwtn": "0","s": "0","dws": "0","sn": "0","p": "286.2","dwp": "0","pn": "100","sq": "0","pd": "15","bs": "","dwbs": "","psPercent": "NA","hdd": "294.5","cdd": "0","stationNumber": "1033232"}
{"stationName": "LENNARD ISLAND","lat": "49.111","lon": "-125.923","province": "BC","tm": "9","dwtm": "2","d": "NA","tx": "14","dwtx": "2","tn": "4","dwtn": "2","s": "0","dws": "2","sn": "NA","p": "192.1","dwp": "2","pn": "NA","sq": "0","pd": "12","bs": "","dwbs": "","psPercent": "NA","hdd": "234.4","cdd": "0","stationNumber": "1034600"}
{"stationName": "NITINAT RIVER HATCHERY","lat": "48.859","lon": "-124.655","province": "BC","tm": "8.5","dwtm": "2","d": "3.7","tx": "16","dwtx": "2","tn": "-1.5","dwtn": "2","s": "0","dws": "2","sn": "NA","p": "406.6","dwp": "2","pn": "NA","sq": "0","pd": "15","bs": "","dwbs": "","psPercent": "NA","hdd": "248.1","cdd": "0","stationNumber": "1035612"}
{"stationName": "NOOTKA LIGHTSTATION","lat": "49.6","lon": "-126.617","province": "BC","tm": "9.1","dwtm": "0","d": "3.3","tx": "13","dwtx": "0","tn": "4","dwtn": "0","s": "0","dws": "0","sn": "0","p": "274.8","dwp": "0","pn": "84","sq": "0","pd": "15","bs": "","dwbs": "","psPercent": "NA","hdd": "248.5","cdd": "0","stationNumber": "1035614"}
{"stationName": "PACHENA POINT","lat": "48.723","lon": "-125.097","province": "BC","tm": "9","dwtm": "0","d": "3","tx": "14","dwtx": "0","tn": "1","dwtn": "0","s": "0","dws": "0","sn": "0","p": "279.8","dwp": "0","pn": "94","sq": "0","pd": "17","bs": "","dwbs": "","psPercent": "NA","hdd": "251.6","cdd": "0","stationNumber": "1035940"}
{"stationName": "PORT ALBERNI COX LAKE","lat": "49.202","lon": "-124.752","province": "BC","tm": "7.9","dwtm": "0","d": "4.1","tx": "14.5","dwtx": "0","tn": "-2","dwtn": "0","s": "0","dws": "0","sn": "0","p": "311.3","dwp": "0","pn": "144","sq": "0","pd": "15","bs": "","dwbs": "","psPercent": "NA","hdd": "281.6","cdd": "0","stationNumber": "1036208"}
{"stationName": "PORT ALICE","lat": "50.386","lon": "-127.455","province": "BC","tm": "8.6","dwtm": "0","d": "3.5","tx": "15","dwtx": "0","tn": "0","dwtn": "0","s": "0","dws": "0","sn": "0","p": "251","dwp": "0","pn": "71","sq": "0","pd": "16","bs": "","dwbs": "","psPercent": "NA","hdd": "262.2","cdd": "0","stationNumber": "1036240"}
{"stationName": "QUATSINO","lat": "50.534","lon": "-127.653","province": "BC","tm": "7.4","dwtm": "6","d": "2.5","tx": "12","dwtx": "6","tn": "0","dwtn": "6","s": "0","dws": "6","sn": "NA","p": "102.8","dwp": "6","pn": "NA","sq": "","pd": "11","bs": "","dwbs": "","psPercent": "NA","hdd": "232.8","cdd": "0","stationNumber": "1036570"}
{"stationName": "QUATSINO LIGHTSTATION","lat": "50.441","lon": "-128.033","province": "BC","tm": "9.5","dwtm": "0","d": "3.3","tx": "16","dwtx": "0","tn": "3.5","dwtn": "0","s": "0","dws": "0","sn": "0","p": "163.8","dwp": "0","pn": "73","sq": "0","pd": "17","bs": "","dwbs": "","psPercent": "NA","hdd": "238.4","cdd": "0","stationNumber": "1036572"}
{"stationName": "PORT ALBERNI (AUT)","lat": "49.317","lon": "-124.927","province": "BC","tm": "7","dwtm": "2","d": "NA","tx": "14.2","dwtx": "2","tn": "-3.4","dwtn": "1","s": "","dws": "","sn": "NA","p": "155.4","dwp": "21","pn": "NA","sq": "","pd": "7","bs": "","dwbs": "","psPercent": "NA","hdd": "286.1","cdd": "0","stationNumber": "1036B06"}
{"stationName": "SARTINE ISLAND (AUT)","lat": "50.821","lon": "-128.908","province": "BC","tm": "8.4","dwtm": "0","d": "NA","tx": "12","dwtx": "0","tn": "5.3","dwtn": "0","s": "","dws": "","sn": "NA","p": "138.8","dwp": "2","pn": "NA","sq": "","pd": "15","bs": "","dwbs": "","psPercent": "NA","hdd": "268.1","cdd": "0","stationNumber": "1037090"}
{"stationName": "SOLANDER ISLAND (AUT)","lat": "50.112","lon": "-127.94","province": "BC","tm": "9","dwtm": "0","d": "NA","tx": "13.9","dwtx": "0","tn": "4.9","dwtn": "0","s": "","dws": "","sn": "NA","p": "63.2","dwp": "2","pn": "NA","sq": "","pd": "13","bs": "","dwbs": "","psPercent": "NA","hdd": "253.4","cdd": "0","stationNumber": "1037553"}
{"stationName": "TAHSIS VILLAGE NORTH","lat": "49.932","lon": "-126.654","province": "BC","tm": "7.8","dwtm": "9","d": "NA","tx": "14","dwtx": "9","tn": "-2","dwtn": "9","s": "0","dws": "9","sn": "NA","p": "395","dwp": "9","pn": "NA","sq": "","pd": "13","bs": "","dwbs": "","psPercent": "NA","hdd": "193.6","cdd": "0","stationNumber": "1037899"}
{"stationName": "TOFINO A","lat": "49.082","lon": "-125.773","province": "BC","tm": "8.5","dwtm": "0","d": "3.1","tx": "14.8","dwtx": "0","tn": "-0.5","dwtn": "0","s": "0","dws": "0","sn": "0","p": "233.8","dwp": "0","pn": "70","sq": "0","pd": "15","bs": "","dwbs": "","psPercent": "NA","hdd": "265.4","cdd": "0","stationNumber": "1038205"}
{"stationName": "UCLUELET KENNEDY CAMP","lat": "48.945","lon": "-125.527","province": "BC","tm": "8.7","dwtm": "0","d": "3.2","tx": "15","dwtx": "0","tn": "-1.5","dwtn": "0","s": "0","dws": "0","sn": "0","p": "250.2","dwp": "0","pn": "71","sq": "0","pd": "16","bs": "","dwbs": "","psPercent": "NA","hdd": "260.2","cdd": "0","stationNumber": "1038332"}
{"stationName": "ZEBALLOS MURAUDE CREEK","lat": "50.053","lon": "-126.779","province": "BC","tm": "8.2","dwtm": "0","d": "NA","tx": "16.5","dwtx": "0","tn": "0","dwtn": "0","s": "0","dws": "0","sn": "NA","p": "424.6","dwp": "0","pn": "NA","sq": "0","pd": "16","bs": "","dwbs": "","psPercent": "NA","hdd": "273.6","cdd": "0","stationNumber": "1039035"}
{"stationName": "GIBSONS GOWER POINT","lat": "49.386","lon": "-123.541","province": "BC","tm": "8.4","dwtm": "0","d": "3.2","tx": "13","dwtx": "0","tn": "3.5","dwtn": "0","s": "0","dws": "0","sn": "0","p": "125.4","dwp": "0","pn": "101","sq": "0","pd": "15","bs": "","dwbs": "","psPercent": "NA","hdd": "269.3","cdd": "0","stationNumber": "1043152"}
{"stationName": "MERRY ISLAND LIGHTSTATION","lat": "49.468","lon": "-123.913","province": "BC","tm": "8.4","dwtm": "0","d": "2.7","tx": "13.5","dwtx": "0","tn": "3","dwtn": "0","s": "0","dws": "0","sn": "0","p": "105.6","dwp": "0","pn": "115","sq": "0","pd": "11","bs": "","dwbs": "","psPercent": "NA","hdd": "269.7","cdd": "0","stationNumber": "1045100"}
{"stationName": "HOWE SOUND - PAM ROCKS","lat": "49.488","lon": "-123.299","province": "BC","tm": "8.9","dwtm": "0","d": "NA","tx": "14.1","dwtx": "0","tn": "4.9","dwtn": "0","s": "","dws": "","sn": "NA","p": "94.8","dwp": "0","pn": "NA","sq": "","pd": "12","bs": "","dwbs": "","psPercent": "NA","hdd": "256","cdd": "0","stationNumber": "10459NN"}
{"stationName": "PENDER HARBOUR","lat": "49.634","lon": "-124.032","province": "BC","tm": "","dwtm": "","d": "NA","tx": "","dwtx": "","tn": "","dwtn": "","s": "0","dws": "0","sn": "NA","p": "160.1","dwp": "0","pn": "NA","sq": "0","pd": "13","bs": "","dwbs": "","psPercent": "NA","hdd": "","cdd": "","stationNumber": "1046115"}
{"stationName": "PORT MELLON","lat": "49.526","lon": "-123.496","province": "BC","tm": "8.2","dwtm": "0","d": "NA","tx": "14.6","dwtx": "0","tn": "2.1","dwtn": "0","s": "","dws": "","sn": "NA","p": "477","dwp": "0","pn": "NA","sq": "0","pd": "15","bs": "","dwbs": "","psPercent": "NA","hdd": "274.7","cdd": "0","stationNumber": "1046332"}
{"stationName": "POWELL RIVER A","lat": "49.834","lon": "-124.5","province": "BC","tm": "7.1","dwtm": "0","d": "3.2","tx": "12.6","dwtx": "0","tn": "-3.1","dwtn": "0","s": "0","dws": "0","sn": "0","p": "150.6","dwp": "0","pn": "138","sq": "0","pd": "14","bs": "","dwbs": "","psPercent": "NA","hdd": "304.5","cdd": "0","stationNumber": "1046391"}
{"stationName": "POWELL RIVER","lat": "49.835","lon": "-124.497","province": "BC","tm": "6.8","dwtm": "0","d": "NA","tx": "12.3","dwtx": "0","tn": "-2.6","dwtn": "0","s": "","dws": "","sn": "NA","p": "128.4","dwp": "1","pn": "NA","sq": "0","pd": "13","bs": "","dwbs": "","psPercent": "NA","hdd": "314.1","cdd": "0","stationNumber": "1046392"}
{"stationName": "SECHELT AUT","lat": "49.458","lon": "-123.715","province": "BC","tm": "7.4","dwtm": "0","d": "NA","tx": "14.2","dwtx": "0","tn": "-1.6","dwtn": "0","s": "","dws": "","sn": "NA","p": "122.4","dwp": "0","pn": "NA","sq": "0","pd": "13","bs": "","dwbs": "","psPercent": "NA","hdd": "297.2","cdd": "0","stationNumber": "1047172"}
{"stationName": "SQUAMISH AIRPORT","lat": "49.783","lon": "-123.161","province": "BC","tm": "7.1","dwtm": "0","d": "NA","tx": "16","dwtx": "0","tn": "-2.2","dwtn": "0","s": "","dws": "","sn": "NA","p": "302.8","dwp": "2","pn": "NA","sq": "0","pd": "11","bs": "","dwbs": "","psPercent": "NA","hdd": "304.6","cdd": "0","stationNumber": "10476F0"}
{"stationName": "CAPE ST JAMES","lat": "51.936","lon": "-131.016","province": "BC","tm": "8.2","dwtm": "0","d": "NA","tx": "12","dwtx": "0","tn": "3.5","dwtn": "0","s": "","dws": "","sn": "NA","p": "","dwp": "","pn": "NA","sq": "","pd": "","bs": "","dwbs": "","psPercent": "NA","hdd": "273.7","cdd": "0","stationNumber": "1051351"}
{"stationName": "KINDAKUN ROCKS (AUT)","lat": "53.316","lon": "-132.772","province": "BC","tm": "8.2","dwtm": "0","d": "NA","tx": "13.9","dwtx": "0","tn": "2.1","dwtn": "0","s": "","dws": "","sn": "NA","p": "75.8","dwp": "5","pn": "NA","sq": "","pd": "10","bs": "","dwbs": "","psPercent": "NA","hdd": "273.4","cdd": "0","stationNumber": "1054222"}
{"stationName": "LANGARA","lat": "54.255","lon": "-133.058","province": "BC","tm": "6.3","dwtm": "0","d": "2.2","tx": "11","dwtx": "0","tn": "-0.2","dwtn": "0","s": "7.6","dws": "0","sn": "58","p": "154","dwp": "0","pn": "110","sq": "0","pd": "17","bs": "","dwbs": "","psPercent": "NA","hdd": "327.9","cdd": "0","stationNumber": "1054500"}
{"stationName": "LANGARA ISLAND RCS","lat": "54.255","lon": "-133.058","province": "BC","tm": "6.1","dwtm": "0","d": "NA","tx": "10.9","dwtx": "0","tn": "-0.2","dwtn": "0","s": "","dws": "","sn": "NA","p": "142.9","dwp": "3","pn": "NA","sq": "","pd": "13","bs": "","dwbs": "","psPercent": "NA","hdd": "332.3","cdd": "0","stationNumber": "1054503"}
{"stationName": "MASSET A","lat": "54","lon": "-132.167","province": "BC","tm": "5.6","dwtm": "0","d": "NA","tx": "12.9","dwtx": "0","tn": "-3.2","dwtn": "0","s": "0.2","dws": "0","sn": "NA","p": "105.4","dwp": "0","pn": "NA","sq": "0","pd": "13","bs": "","dwbs": "","psPercent": "NA","hdd": "346","cdd": "0","stationNumber": "1054925"}
{"stationName": "ROSE SPIT (AUT)","lat": "54.159","lon": "-131.661","province": "BC","tm": "6.6","dwtm": "0","d": "NA","tx": "11.1","dwtx": "0","tn": "-1.1","dwtn": "0","s": "","dws": "","sn": "NA","p": "62.6","dwp": "20","pn": "NA","sq": "","pd": "6","bs": "","dwbs": "","psPercent": "NA","hdd": "319.5","cdd": "0","stationNumber": "1056869"}
{"stationName": "SANDSPIT A","lat": "53.254","lon": "-131.813","province": "BC","tm": "6.5","dwtm": "0","d": "2.4","tx": "12.5","dwtx": "0","tn": "-1","dwtn": "0","s": "0","dws": "0","sn": "0","p": "98.4","dwp": "0","pn": "75","sq": "0","pd": "13","bs": "","dwbs": "","psPercent": "NA","hdd": "321.7","cdd": "0","stationNumber": "1057050"}
{"stationName": "SANDSPIT AIRPORT AUTO","lat": "53.25","lon": "-131.813","province": "BC","tm": "6.6","dwtm": "0","d": "NA","tx": "12.3","dwtx": "0","tn": "-0.5","dwtn": "0","s": "","dws": "","sn": "NA","p": "67.8","dwp": "15","pn": "NA","sq": "","pd": "7","bs": "","dwbs": "","psPercent": "NA","hdd": "318","cdd": "0","stationNumber": "1057051"}
{"stationName": "SANDSPIT","lat": "53.254","lon": "-131.814","province": "BC","tm": "6.6","dwtm": "2","d": "NA","tx": "12.3","dwtx": "2","tn": "-0.6","dwtn": "2","s": "","dws": "","sn": "NA","p": "0","dwp": "3","pn": "NA","sq": "","pd": "0","bs": "","dwbs": "","psPercent": "NA","hdd": "297","cdd": "0","stationNumber": "1057052"}
{"stationName": "ADDENBROKE ISLAND","lat": "51.604","lon": "-127.864","province": "BC","tm": "7.7","dwtm": "0","d": "2.7","tx": "14","dwtx": "0","tn": "2","dwtn": "0","s": "0","dws": "0","sn": "0","p": "258.2","dwp": "0","pn": "97","sq": "0","pd": "17","bs": "","dwbs": "","psPercent": "NA","hdd": "289.4","cdd": "0","stationNumber": "1060080"}
{"stationName": "BELLA BELLA","lat": "52.185","lon": "-128.157","province": "BC","tm": "5.5","dwtm": "1","d": "NA","tx": "14.1","dwtx": "1","tn": "-3.9","dwtn": "1","s": "","dws": "","sn": "NA","p": "233.9","dwp": "1","pn": "NA","sq": "","pd": "14","bs": "","dwbs": "","psPercent": "NA","hdd": "337.8","cdd": "0","stationNumber": "1060815"}
{"stationName": "BELLA COOLA A","lat": "52.388","lon": "-126.596","province": "BC","tm": "4.7","dwtm": "0","d": "2.6","tx": "14.5","dwtx": "0","tn": "-3.5","dwtn": "0","s": "6","dws": "0","sn": "35","p": "87.2","dwp": "0","pn": "100","sq": "0","pd": "12","bs": "","dwbs": "","psPercent": "NA","hdd": "373.2","cdd": "0","stationNumber": "1060841"}
{"stationName": "BOAT BLUFF","lat": "52.643","lon": "-128.524","province": "BC","tm": "7.2","dwtm": "0","d": "3.3","tx": "13","dwtx": "0","tn": "2","dwtn": "0","s": "0","dws": "0","sn": "0","p": "516.8","dwp": "0","pn": "121","sq": "0","pd": "17","bs": "","dwbs": "","psPercent": "NA","hdd": "302.9","cdd": "0","stationNumber": "1060901"}
{"stationName": "BONILLA ISLAND","lat": "53.493","lon": "-130.638","province": "BC","tm": "7.7","dwtm": "0","d": "2.7","tx": "12.5","dwtx": "0","tn": "2","dwtn": "0","s": "0","dws": "0","sn": "0","p": "183.6","dwp": "0","pn": "104","sq": "0","pd": "14","bs": "","dwbs": "","psPercent": "NA","hdd": "287.9","cdd": "0","stationNumber": "1060902"}
{"stationName": "BONILLA ISLAND (AUT)","lat": "53.493","lon": "-130.639","province": "BC","tm": "7.4","dwtm": "0","d": "NA","tx": "11.1","dwtx": "0","tn": "2","dwtn": "0","s": "","dws": "","sn": "NA","p": "114.2","dwp": "2","pn": "NA","sq": "","pd": "11","bs": "","dwbs": "","psPercent": "NA","hdd": "298","cdd": "0","stationNumber": "1060R0K"}
{"stationName": "CATHEDRAL POINT (AUT)","lat": "52.187","lon": "-127.471","province": "BC","tm": "5.8","dwtm": "0","d": "NA","tx": "11","dwtx": "0","tn": "0.3","dwtn": "0","s": "","dws": "","sn": "NA","p": "102.4","dwp": "15","pn": "NA","sq": "","pd": "6","bs": "","dwbs": "","psPercent": "NA","hdd": "341.5","cdd": "0","stationNumber": "1061458"}
{"stationName": "CUMSHEWA ISLAND","lat": "53.03","lon": "-131.602","province": "BC","tm": "7.6","dwtm": "0","d": "NA","tx": "12.8","dwtx": "0","tn": "2.2","dwtn": "0","s": "","dws": "","sn": "NA","p": "","dwp": "","pn": "NA","sq": "","pd": "","bs": "","dwbs": "","psPercent": "NA","hdd": "290.4","cdd": "0","stationNumber": "1062251"}
{"stationName": "DRYAD POINT","lat": "52.185","lon": "-128.112","province": "BC","tm": "7","dwtm": "0","d": "2.3","tx": "14.5","dwtx": "0","tn": "2","dwtn": "0","s": "0","dws": "0","sn": "0","p": "211","dwp": "0","pn": "100","sq": "0","pd": "17","bs": "","dwbs": "","psPercent": "NA","hdd": "307.7","cdd": "0","stationNumber": "1062544"}
{"stationName": "EGG ISLAND","lat": "51.247","lon": "-127.835","province": "BC","tm": "7.3","dwtm": "0","d": "2.2","tx": "13","dwtx": "0","tn": "1","dwtn": "0","s": "0","dws": "0","sn": "0","p": "156.2","dwp": "0","pn": "72","sq": "0","pd": "17","bs": "","dwbs": "","psPercent": "NA","hdd": "299.4","cdd": "0","stationNumber": "1062646"}
{"stationName": "GREEN ISLAND","lat": "54.569","lon": "-130.708","province": "BC","tm": "5.8","dwtm": "0","d": "2","tx": "10","dwtx": "0","tn": "0.5","dwtn": "0","s": "0.4","dws": "0","sn": "4","p": "243.6","dwp": "0","pn": "140","sq": "0","pd": "15","bs": "","dwbs": "","psPercent": "NA","hdd": "341.6","cdd": "0","stationNumber": "1063298"}
{"stationName": "GREY ISLET (AUT)","lat": "54.58","lon": "-130.698","province": "BC","tm": "5.8","dwtm": "0","d": "NA","tx": "10.2","dwtx": "0","tn": "0.5","dwtn": "0","s": "","dws": "","sn": "NA","p": "23","dwp": "14","pn": "NA","sq": "","pd": "6","bs": "","dwbs": "","psPercent": "NA","hdd": "342.6","cdd": "0","stationNumber": "1063303"}
{"stationName": "HERBERT ISLAND (AUT)","lat": "50.94","lon": "-127.632","province": "BC","tm": "8.9","dwtm": "0","d": "NA","tx": "12.5","dwtx": "0","tn": "4.6","dwtn": "0","s": "","dws": "","sn": "NA","p": "48.6","dwp": "0","pn": "NA","sq": "","pd": "14","bs": "","dwbs": "","psPercent": "NA","hdd": "253.5","cdd": "0","stationNumber": "1063461"}
{"stationName": "HOLLAND ROCK","lat": "54.172","lon": "-130.361","province": "BC","tm": "6.8","dwtm": "1","d": "NA","tx": "12.1","dwtx": "1","tn": "1.2","dwtn": "1","s": "","dws": "","sn": "NA","p": "34.8","dwp": "13","pn": "NA","sq": "","pd": "10","bs": "","dwbs": "","psPercent": "NA","hdd": "303.5","cdd": "0","stationNumber": "1063496"}
{"stationName": "IVORY ISLAND","lat": "52.27","lon": "-128.407","province": "BC","tm": "7.2","dwtm": "0","d": "2.3","tx": "13","dwtx": "0","tn": "2","dwtn": "0","s": "0","dws": "0","sn": "0","p": "246.8","dwp": "0","pn": "127","sq": "0","pd": "16","bs": "","dwbs": "","psPercent": "NA","hdd": "303.4","cdd": "0","stationNumber": "1063690"}
{"stationName": "KEMANO","lat": "53.563","lon": "-127.943","province": "BC","tm": "1.7","dwtm": "0","d": "1.3","tx": "16.5","dwtx": "0","tn": "-5","dwtn": "0","s": "156","dws": "0","sn": "455","p": "249.4","dwp": "0","pn": "146","sq": "40","pd": "17","bs": "","dwbs": "","psPercent": "NA","hdd": "456.5","cdd": "0","stationNumber": "1064020"}
{"stationName": "KITIMAT TOWNSITE","lat": "54.054","lon": "-128.634","province": "BC","tm": "1.4","dwtm": "4","d": "1.1","tx": "7","dwtx": "4","tn": "-5","dwtn": "4","s": "8","dws": "4","sn": "NA","p": "112","dwp": "4","pn": "NA","sq": "0","pd": "9","bs": "","dwbs": "","psPercent": "NA","hdd": "399","cdd": "0","stationNumber": "1064320"}
{"stationName": "KITIMAT 2","lat": "54.01","lon": "-128.705","province": "BC","tm": "2.2","dwtm": "11","d": "1.3","tx": "10.5","dwtx": "10","tn": "-9","dwtn": "11","s": "161","dws": "10","sn": "NA","p": "190.9","dwp": "10","pn": "NA","sq": "0","pd": "8","bs": "","dwbs": "","psPercent": "NA","hdd": "269.3","cdd": "0","stationNumber": "1064321"}
{"stationName": "LUCY ISLAND LIGHTSTATION","lat": "54.296","lon": "-130.609","province": "BC","tm": "6.9","dwtm": "0","d": "NA","tx": "11.3","dwtx": "0","tn": "0.8","dwtn": "0","s": "","dws": "","sn": "NA","p": "","dwp": "","pn": "NA","sq": "","pd": "","bs": "","dwbs": "","psPercent": "NA","hdd": "311.7","cdd": "0","stationNumber": "1064728"}
{"stationName": "PRINCE RUPERT","lat": "54.286","lon": "-130.445","province": "BC","tm": "5.5","dwtm": "0","d": "NA","tx": "11.9","dwtx": "0","tn": "-2.6","dwtn": "0","s": "","dws": "","sn": "NA","p": "186.5","dwp": "0","pn": "NA","sq": "","pd": "15","bs": "","dwbs": "","psPercent": "NA","hdd": "349.5","cdd": "0","stationNumber": "1066482"}
{"stationName": "PRINCE RUPERT MONT CIRC","lat": "54.32","lon": "-130.29","province": "BC","tm": "","dwtm": "","d": "NA","tx": "","dwtx": "","tn": "","dwtn": "","s": "0","dws": "10","sn": "NA","p": "222.8","dwp": "10","pn": "NA","sq": "","pd": "15","bs": "","dwbs": "","psPercent": "NA","hdd": "","cdd": "","stationNumber": "1066488"}
{"stationName": "STEWART A","lat": "55.936","lon": "-129.985","province": "BC","tm": "0.8","dwtm": "0","d": "1.9","tx": "9.4","dwtx": "0","tn": "-11.5","dwtn": "0","s": "47.8","dws": "0","sn": "56","p": "105.4","dwp": "0","pn": "77","sq": "20","pd": "11","bs": "","dwbs": "","psPercent": "NA","hdd": "482.6","cdd": "0","stationNumber": "1067742"}
{"stationName": "TERRACE PCC","lat": "54.502","lon": "-128.625","province": "BC","tm": "1.4","dwtm": "0","d": "1.2","tx": "11","dwtx": "0","tn": "-10.5","dwtn": "0","s": "38.4","dws": "0","sn": "131","p": "77.1","dwp": "0","pn": "83","sq": "2","pd": "9","bs": "","dwbs": "","psPercent": "NA","hdd": "464.9","cdd": "0","stationNumber": "1068131"}
{"stationName": "TERRACE A","lat": "54.469","lon": "-128.578","province": "BC","tm": "0.3","dwtm": "0","d": "NA","tx": "8.3","dwtx": "0","tn": "-8","dwtn": "0","s": "179.3","dws": "0","sn": "NA","p": "191.5","dwp": "1","pn": "NA","sq": "","pd": "11","bs": "","dwbs": "","psPercent": "NA","hdd": "495.3","cdd": "0","stationNumber": "1068134"}
{"stationName": "TRIPLE ISLAND","lat": "54.295","lon": "-130.88","province": "BC","tm": "7.2","dwtm": "0","d": "NA","tx": "12","dwtx": "0","tn": "1.5","dwtn": "0","s": "0","dws": "0","sn": "NA","p": "126.8","dwp": "0","pn": "NA","sq": "0","pd": "14","bs": "","dwbs": "","psPercent": "NA","hdd": "302.7","cdd": "0","stationNumber": "1068250"}
{"stationName": "KITIMAT HATCHERY","lat": "54.044","lon": "-128.682","province": "BC","tm": "2.1","dwtm": "11","d": "NA","tx": "10.5","dwtx": "11","tn": "-7","dwtn": "11","s": "102.3","dws": "11","sn": "NA","p": "205","dwp": "11","pn": "NA","sq": "36","pd": "9","bs": "","dwbs": "","psPercent": "NA","hdd": "269.7","cdd": "0","stationNumber": "106D289"}
{"stationName": "EQUITY SILVER","lat": "54.199","lon": "-126.277","province": "BC","tm": "-5.6","dwtm": "0","d": "1.1","tx": "8.5","dwtx": "0","tn": "-18","dwtn": "0","s": "79.5","dws": "0","sn": "196","p": "86.5","dwp": "0","pn": "212","sq": "0","pd": "11","bs": "","dwbs": "","psPercent": "NA","hdd": "661.2","cdd": "0","stationNumber": "1072692"}
{"stationName": "HOUSTON","lat": "54.396","lon": "-126.668","province": "BC","tm": "-1.9","dwtm": "7","d": "NA","tx": "9.5","dwtx": "7","tn": "-16","dwtn": "7","s": "5","dws": "8","sn": "NA","p": "5","dwp": "8","pn": "NA","sq": "0","pd": "1","bs": "","dwbs": "","psPercent": "NA","hdd": "417.2","cdd": "0","stationNumber": "1073615"}
{"stationName": "NASS CAMP","lat": "55.238","lon": "-129.03","province": "BC","tm": "-0.7","dwtm": "0","d": "1.6","tx": "10.5","dwtx": "0","tn": "-13.5","dwtn": "0","s": "71","dws": "0","sn": "197","p": "94.8","dwp": "0","pn": "137","sq": "30","pd": "12","bs": "","dwbs": "","psPercent": "NA","hdd": "524.7","cdd": "0","stationNumber": "1075384"}
{"stationName": "SMITHERS","lat": "54.825","lon": "-127.183","province": "BC","tm": "-2.7","dwtm": "0","d": "NA","tx": "8.4","dwtx": "0","tn": "-17","dwtn": "0","s": "","dws": "","sn": "NA","p": "40.4","dwp": "0","pn": "NA","sq": "","pd": "5","bs": "","dwbs": "","psPercent": "NA","hdd": "580.5","cdd": "0","stationNumber": "1077499"}
{"stationName": "SMITHERS A","lat": "54.825","lon": "-127.183","province": "BC","tm": "-2.4","dwtm": "0","d": "2","tx": "10.1","dwtx": "0","tn": "-17.4","dwtn": "0","s": "41","dws": "0","sn": "175","p": "52.4","dwp": "0","pn": "224","sq": "25","pd": "9","bs": "","dwbs": "","psPercent": "NA","hdd": "570.6","cdd": "0","stationNumber": "1077500"}
{"stationName": "SMITHERS AIRPORT AUTO","lat": "54.824","lon": "-127.189","province": "BC","tm": "-2.7","dwtm": "0","d": "NA","tx": "8.9","dwtx": "0","tn": "-17.3","dwtn": "0","s": "","dws": "","sn": "NA","p": "45.2","dwp": "0","pn": "NA","sq": "35","pd": "12","bs": "","dwbs": "","psPercent": "NA","hdd": "578.9","cdd": "0","stationNumber": "1077501"}
{"stationName": "SUSKWA VALLEY","lat": "55.289","lon": "-127.171","province": "BC","tm": "-3.1","dwtm": "1","d": "0.3","tx": "8","dwtx": "1","tn": "-14.5","dwtn": "1","s": "28.3","dws": "1","sn": "NA","p": "41.7","dwp": "1","pn": "NA","sq": "28","pd": "7","bs": "","dwbs": "","psPercent": "NA","hdd": "570.8","cdd": "0","stationNumber": "107G879"}
{"stationName": "OOTSA L SKINS L SPILLWAY","lat": "53.772","lon": "-125.997","province": "BC","tm": "-4.8","dwtm": "0","d": "1.4","tx": "8.5","dwtx": "0","tn": "-19","dwtn": "0","s": "72.4","dws": "0","sn": "343","p": "79","dwp": "0","pn": "332","sq": "","pd": "12","bs": "","dwbs": "","psPercent": "NA","hdd": "638.2","cdd": "0","stationNumber": "1085835"}
{"stationName": "OOTSA LAKESKINS LAKE CLIMATE","lat": "53.772","lon": "-125.997","province": "BC","tm": "-4.2","dwtm": "0","d": "NA","tx": "6.8","dwtx": "0","tn": "-18.8","dwtn": "0","s": "","dws": "","sn": "NA","p": "74.7","dwp": "3","pn": "NA","sq": "57","pd": "10","bs": "","dwbs": "","psPercent": "NA","hdd": "622.3","cdd": "0","stationNumber": "1085836"}
{"stationName": "PEMBERTON AIRPORT CS","lat": "50.306","lon": "-122.734","province": "BC","tm": "4.5","dwtm": "3","d": "NA","tx": "14.8","dwtx": "3","tn": "-3.6","dwtn": "2","s": "","dws": "","sn": "NA","p": "113.8","dwp": "3","pn": "NA","sq": "0","pd": "10","bs": "","dwbs": "","psPercent": "NA","hdd": "337.3","cdd": "0","stationNumber": "1086082"}
{"stationName": "PUNTZI MOUNTAIN (AUT)","lat": "52.114","lon": "-124.136","province": "BC","tm": "-3.2","dwtm": "0","d": "NA","tx": "11.1","dwtx": "0","tn": "-21.3","dwtn": "0","s": "","dws": "","sn": "NA","p": "20.7","dwp": "0","pn": "NA","sq": "33","pd": "7","bs": "","dwbs": "","psPercent": "NA","hdd": "592.6","cdd": "0","stationNumber": "1086558"}
{"stationName": "TATLAYOKO LAKE RCS","lat": "51.675","lon": "-124.403","province": "BC","tm": "1","dwtm": "0","d": "NA","tx": "12.9","dwtx": "0","tn": "-14.7","dwtn": "0","s": "","dws": "","sn": "NA","p": "39.9","dwp": "0","pn": "NA","sq": "0","pd": "6","bs": "","dwbs": "","psPercent": "NA","hdd": "476.4","cdd": "0","stationNumber": "1088015"}
{"stationName": "BARKERVILLE","lat": "53.069","lon": "-121.515","province": "BC","tm": "-2","dwtm": "0","d": "3.8","tx": "8","dwtx": "0","tn": "-16","dwtn": "0","s": "53.9","dws": "0","sn": "94","p": "75.8","dwp": "0","pn": "125","sq": "90","pd": "14","bs": "","dwbs": "","psPercent": "NA","hdd": "560.6","cdd": "0","stationNumber": "1090660"}
{"stationName": "BURNS LAKE DECKER LAKE","lat": "54.383","lon": "-125.959","province": "BC","tm": "-4.6","dwtm": "0","d": "NA","tx": "7.4","dwtx": "0","tn": "-19.4","dwtn": "0","s": "","dws": "","sn": "NA","p": "34.4","dwp": "0","pn": "NA","sq": "63","pd": "9","bs": "","dwbs": "","psPercent": "NA","hdd": "632","cdd": "0","stationNumber": "1091174"}
{"stationName": "CRESCENT SPUR","lat": "53.6","lon": "-120.7","province": "BC","tm": "-0.8","dwtm": "2","d": "NA","tx": "9","dwtx": "2","tn": "-14.5","dwtn": "2","s": "47.6","dws": "2","sn": "NA","p": "65","dwp": "2","pn": "NA","sq": "22","pd": "9","bs": "","dwbs": "","psPercent": "NA","hdd": "489.7","cdd": "0","stationNumber": "1092120"}
{"stationName": "FORT ST JAMES","lat": "54.455","lon": "-124.286","province": "BC","tm": "-4.5","dwtm": "13","d": "2.3","tx": "7.5","dwtx": "13","tn": "-21","dwtn": "13","s": "9","dws": "13","sn": "NA","p": "26.2","dwp": "13","pn": "NA","sq": "","pd": "5","bs": "","dwbs": "","psPercent": "NA","hdd": "337.8","cdd": "0","stationNumber": "1092970"}
{"stationName": "FORT ST JAMES AUTO","lat": "54.455","lon": "-124.286","province": "BC","tm": "-3.9","dwtm": "0","d": "NA","tx": "7.6","dwtx": "0","tn": "-21","dwtn": "0","s": "","dws": "","sn": "NA","p": "45.6","dwp": "2","pn": "NA","sq": "35","pd": "8","bs": "","dwbs": "","psPercent": "NA","hdd": "613","cdd": "0","stationNumber": "1092975"}
{"stationName": "HIXON","lat": "53.531","lon": "-122.699","province": "BC","tm": "-0.3","dwtm": "6","d": "3.5","tx": "8.5","dwtx": "6","tn": "-12.5","dwtn": "6","s": "9.4","dws": "2","sn": "NA","p": "30.6","dwp": "2","pn": "NA","sq": "0","pd": "6","bs": "","dwbs": "","psPercent": "NA","hdd": "402","cdd": "0","stationNumber": "1093474"}
{"stationName": "HORSEFLY LAKE GRUHS LAKE","lat": "52.363","lon": "-121.364","province": "BC","tm": "-0.9","dwtm": "11","d": "3.1","tx": "12.5","dwtx": "11","tn": "-12.5","dwtn": "11","s": "32.6","dws": "11","sn": "NA","p": "51.8","dwp": "11","pn": "NA","sq": "0","pd": "9","bs": "","dwbs": "","psPercent": "NA","hdd": "321.4","cdd": "0","stationNumber": "1093600"}
{"stationName": "MCLEESE LAKE FRASERVIEW","lat": "52.38","lon": "-122.374","province": "BC","tm": "-0.2","dwtm": "0","d": "2.8","tx": "11","dwtx": "0","tn": "-10","dwtn": "0","s": "22","dws": "0","sn": "206","p": "37.2","dwp": "0","pn": "257","sq": "11","pd": "8","bs": "","dwbs": "","psPercent": "NA","hdd": "509.6","cdd": "0","stationNumber": "1095015"}
{"stationName": "MCLEESE LAKE GRANITE MT","lat": "52.531","lon": "-122.286","province": "BC","tm": "-0.9","dwtm": "13","d": "NA","tx": "9","dwtx": "9","tn": "-14","dwtn": "9","s": "28.8","dws": "9","sn": "NA","p": "50.9","dwp": "9","pn": "NA","sq": "","pd": "8","bs": "","dwbs": "","psPercent": "NA","hdd": "283.6","cdd": "0","stationNumber": "1095018"}
{"stationName": "PRINCE GEORGE","lat": "53.884","lon": "-122.678","province": "BC","tm": "-3","dwtm": "0","d": "NA","tx": "7.3","dwtx": "0","tn": "-16.9","dwtn": "0","s": "","dws": "","sn": "NA","p": "30.4","dwp": "0","pn": "NA","sq": "","pd": "8","bs": "","dwbs": "","psPercent": "NA","hdd": "588.1","cdd": "0","stationNumber": "1096439"}
{"stationName": "PRINCE GEORGE AIRPORT AUTO","lat": "53.889","lon": "-122.672","province": "BC","tm": "-3","dwtm": "0","d": "NA","tx": "7.2","dwtx": "0","tn": "-17.2","dwtn": "0","s": "","dws": "","sn": "NA","p": "33.6","dwp": "0","pn": "NA","sq": "16","pd": "8","bs": "","dwbs": "","psPercent": "NA","hdd": "588.2","cdd": "0","stationNumber": "1096453"}
{"stationName": "PRINCE GEORGE STP","lat": "53.88","lon": "-122.768","province": "BC","tm": "-1.4","dwtm": "5","d": "2.3","tx": "14","dwtx": "5","tn": "-15","dwtn": "5","s": "25.7","dws": "5","sn": "NA","p": "34.3","dwp": "5","pn": "NA","sq": "20","pd": "6","bs": "","dwbs": "","psPercent": "NA","hdd": "446.3","cdd": "0","stationNumber": "1096468"}
{"stationName": "QUESNEL","lat": "53.026","lon": "-122.51","province": "BC","tm": "-0.1","dwtm": "4","d": "NA","tx": "12.3","dwtx": "4","tn": "-12.2","dwtn": "3","s": "","dws": "","sn": "NA","p": "35.8","dwp": "1","pn": "NA","sq": "","pd": "7","bs": "","dwbs": "","psPercent": "NA","hdd": "433.2","cdd": "0","stationNumber": "1096629"}
{"stationName": "QUESNEL AIRPORT AUTO","lat": "53.027","lon": "-122.506","province": "BC","tm": "-1.7","dwtm": "0","d": "NA","tx": "9.8","dwtx": "0","tn": "-13","dwtn": "0","s": "","dws": "","sn": "NA","p": "31.7","dwp": "0","pn": "NA","sq": "25","pd": "6","bs": "","dwbs": "","psPercent": "NA","hdd": "552.8","cdd": "0","stationNumber": "1096631"}
{"stationName": "SPOKIN LAKE 4E","lat": "52.184","lon": "-121.686","province": "BC","tm": "-1.1","dwtm": "0","d": "4.3","tx": "11","dwtx": "0","tn": "-17","dwtn": "0","s": "28","dws": "0","sn": "124","p": "54.8","dwp": "0","pn": "219","sq": "2","pd": "8","bs": "","dwbs": "","psPercent": "NA","hdd": "533.9","cdd": "0","stationNumber": "1097646"}
{"stationName": "WILLIAMS LAKE A","lat": "52.183","lon": "-122.054","province": "BC","tm": "-0.7","dwtm": "0","d": "NA","tx": "9.6","dwtx": "0","tn": "-14.8","dwtn": "0","s": "31.1","dws": "0","sn": "NA","p": "54.4","dwp": "2","pn": "NA","sq": "7","pd": "10","bs": "","dwbs": "","psPercent": "NA","hdd": "523.3","cdd": "0","stationNumber": "1098941"}
{"stationName": "VANDERHOOF","lat": "54.033","lon": "-124.017","province": "BC","tm": "-3.1","dwtm": "2","d": "2.4","tx": "9","dwtx": "2","tn": "-16.5","dwtn": "2","s": "24.8","dws": "2","sn": "NA","p": "37.8","dwp": "2","pn": "NA","sq": "0","pd": "8","bs": "","dwbs": "","psPercent": "NA","hdd": "548.3","cdd": "0","stationNumber": "1098D90"}
{"stationName": "108 MILE HOUSE ABEL LAKE","lat": "51.623","lon": "-121.263","province": "BC","tm": "0.7","dwtm": "0","d": "NA","tx": "11.5","dwtx": "0","tn": "-11.5","dwtn": "0","s": "16","dws": "0","sn": "NA","p": "34.4","dwp": "0","pn": "NA","sq": "10","pd": "11","bs": "","dwbs": "","psPercent": "NA","hdd": "485.5","cdd": "0","stationNumber": "109E7R6"}
{"stationName": "ABBOTSFORD A","lat": "49.025","lon": "-122.36","province": "BC","tm": "8.2","dwtm": "0","d": "NA","tx": "15.4","dwtx": "0","tn": "-1.4","dwtn": "0","s": "0","dws": "0","sn": "NA","p": "111.4","dwp": "1","pn": "NA","sq": "","pd": "14","bs": "","dwbs": "","psPercent": "NA","hdd": "274.7","cdd": "0","stationNumber": "1100031"}
{"stationName": "AGASSIZ RCS","lat": "49.243","lon": "-121.76","province": "BC","tm": "8.6","dwtm": "0","d": "2.7","tx": "16","dwtx": "0","tn": "-0.6","dwtn": "0","s": "","dws": "","sn": "NA","p": "124","dwp": "1","pn": "NA","sq": "","pd": "14","bs": "","dwbs": "","psPercent": "NA","hdd": "264.6","cdd": "0","stationNumber": "1100119"}
{"stationName": "AGASSIZ CDA","lat": "49.243","lon": "-121.76","province": "BC","tm": "8.9","dwtm": "2","d": "3.8","tx": "16","dwtx": "1","tn": "-0.5","dwtn": "1","s": "0","dws": "1","sn": "NA","p": "168.8","dwp": "1","pn": "NA","sq": "0","pd": "13","bs": "","dwbs": "","psPercent": "NA","hdd": "236.6","cdd": "0","stationNumber": "1100120"}
{"stationName": "WHISTLER - NESTERS","lat": "50.129","lon": "-122.955","province": "BC","tm": "3.7","dwtm": "0","d": "NA","tx": "12.8","dwtx": "0","tn": "-5","dwtn": "0","s": "","dws": "","sn": "NA","p": "124.4","dwp": "0","pn": "NA","sq": "0","pd": "11","bs": "","dwbs": "","psPercent": "NA","hdd": "399.8","cdd": "0","stationNumber": "1100875"}
{"stationName": "BLACKCOMB BASE SLIDING CENTER","lat": "50.102","lon": "-122.936","province": "BC","tm": "3.1","dwtm": "0","d": "NA","tx": "11.6","dwtx": "0","tn": "-3.9","dwtn": "0","s": "","dws": "","sn": "NA","p": "172.8","dwp": "3","pn": "NA","sq": "0","pd": "9","bs": "","dwbs": "","psPercent": "NA","hdd": "417.1","cdd": "0","stationNumber": "1100881"}
{"stationName": "BURNABY SIMON FRASER U","lat": "49.278","lon": "-122.918","province": "BC","tm": "8.3","dwtm": "15","d": "4.1","tx": "14","dwtx": "15","tn": "4.5","dwtn": "15","s": "0","dws": "15","sn": "NA","p": "150.7","dwp": "15","pn": "NA","sq": "","pd": "10","bs": "","dwbs": "","psPercent": "NA","hdd": "125.8","cdd": "0","stationNumber": "1101158"}
{"stationName": "CALLAGHAN VALLEY","lat": "50.144","lon": "-123.111","province": "BC","tm": "3.3","dwtm": "0","d": "NA","tx": "12.4","dwtx": "0","tn": "-4.7","dwtn": "0","s": "","dws": "","sn": "NA","p": "246.3","dwp": "0","pn": "NA","sq": "0","pd": "12","bs": "","dwbs": "","psPercent": "NA","hdd": "411","cdd": "0","stationNumber": "1101300"}
{"stationName": "COQUITLAM COMO LAKE AVE","lat": "49.269","lon": "-122.866","province": "BC","tm": "","dwtm": "","d": "NA","tx": "","dwtx": "","tn": "","dwtn": "","s": "0","dws": "0","sn": "0","p": "165.3","dwp": "0","pn": "91","sq": "0","pd": "13","bs": "","dwbs": "","psPercent": "NA","hdd": "","cdd": "","stationNumber": "1101889"}
{"stationName": "CHILLIWACK R HATCHERY","lat": "49.08","lon": "-121.704","province": "BC","tm": "6.6","dwtm": "0","d": "3.1","tx": "16.5","dwtx": "0","tn": "-1.5","dwtn": "0","s": "0","dws": "0","sn": "0","p": "153.8","dwp": "0","pn": "120","sq": "0","pd": "17","bs": "","dwbs": "","psPercent": "NA","hdd": "318.4","cdd": "0","stationNumber": "1101N65"}
{"stationName": "DELTA BURNS BOG","lat": "49.126","lon": "-123.002","province": "BC","tm": "7.3","dwtm": "2","d": "NA","tx": "14.8","dwtx": "2","tn": "-3.9","dwtn": "1","s": "","dws": "","sn": "NA","p": "88.9","dwp": "2","pn": "NA","sq": "","pd": "12","bs": "","dwbs": "","psPercent": "NA","hdd": "277.9","cdd": "0","stationNumber": "1102415"}
{"stationName": "DELTA TSAWWASSEN BEACH","lat": "49.011","lon": "-123.093","province": "BC","tm": "7.9","dwtm": "2","d": "2.1","tx": "14","dwtx": "2","tn": "1.5","dwtn": "2","s": "0","dws": "2","sn": "NA","p": "70.6","dwp": "2","pn": "NA","sq": "0","pd": "11","bs": "","dwbs": "","psPercent": "NA","hdd": "261.8","cdd": "0","stationNumber": "1102425"}
{"stationName": "FORT LANGLEY TELEGRAPH TRAIL","lat": "49.145","lon": "-122.551","province": "BC","tm": "8.1","dwtm": "0","d": "NA","tx": "15","dwtx": "0","tn": "-1","dwtn": "0","s": "0","dws": "0","sn": "NA","p": "116.6","dwp": "0","pn": "NA","sq": "0","pd": "14","bs": "","dwbs": "","psPercent": "NA","hdd": "276","cdd": "0","stationNumber": "1102912"}
{"stationName": "HANEY UBC RF ADMIN","lat": "49.264","lon": "-122.573","province": "BC","tm": "8","dwtm": "0","d": "3.8","tx": "14","dwtx": "0","tn": "-1","dwtn": "0","s": "0","dws": "0","sn": "0","p": "192.9","dwp": "0","pn": "96","sq": "0","pd": "14","bs": "","dwbs": "","psPercent": "NA","hdd": "279.7","cdd": "0","stationNumber": "1103332"}
{"stationName": "LAIDLAW","lat": "49.356","lon": "-121.579","province": "BC","tm": "7.8","dwtm": "0","d": "3.6","tx": "15","dwtx": "0","tn": "-1","dwtn": "0","s": "0","dws": "0","sn": "0","p": "198","dwp": "0","pn": "102","sq": "0","pd": "16","bs": "","dwbs": "","psPercent": "NA","hdd": "286.7","cdd": "0","stationNumber": "1104488"}
{"stationName": "MISSION WEST ABBEY","lat": "49.153","lon": "-122.271","province": "BC","tm": "8.1","dwtm": "0","d": "3.5","tx": "15.5","dwtx": "0","tn": "2","dwtn": "0","s": "0","dws": "0","sn": "0","p": "151","dwp": "0","pn": "94","sq": "0","pd": "16","bs": "","dwbs": "","psPercent": "NA","hdd": "277","cdd": "0","stationNumber": "1105192"}
{"stationName": "RICHMOND OPERATIONS CENTRE","lat": "49.182","lon": "-123.078","province": "BC","tm": "","dwtm": "","d": "NA","tx": "","dwtx": "","tn": "","dwtn": "","s": "","dws": "","sn": "NA","p": "100.8","dwp": "0","pn": "NA","sq": "","pd": "12","bs": "","dwbs": "","psPercent": "NA","hdd": "","cdd": "","stationNumber": "1105210"}
{"stationName": "N VANC GROUSE MTN RESORT","lat": "49.381","lon": "-123.078","province": "BC","tm": "3.6","dwtm": "9","d": "3.7","tx": "8.5","dwtx": "9","tn": "-1","dwtn": "9","s": "5","dws": "9","sn": "NA","p": "202.7","dwp": "9","pn": "NA","sq": "0","pd": "12","bs": "","dwbs": "","psPercent": "NA","hdd": "273.2","cdd": "0","stationNumber": "1105658"}
{"stationName": "N VANCOUVER WHARVES","lat": "49.315","lon": "-123.115","province": "BC","tm": "","dwtm": "","d": "NA","tx": "","dwtx": "","tn": "","dwtn": "","s": "0","dws": "1","sn": "NA","p": "147.2","dwp": "1","pn": "NA","sq": "0","pd": "14","bs": "","dwbs": "","psPercent": "NA","hdd": "","cdd": "","stationNumber": "1105669"}
{"stationName": "PITT MEADOWS CS","lat": "49.208","lon": "-122.69","province": "BC","tm": "8.2","dwtm": "1","d": "NA","tx": "15.6","dwtx": "1","tn": "-2.5","dwtn": "0","s": "","dws": "","sn": "NA","p": "128.3","dwp": "1","pn": "NA","sq": "","pd": "13","bs": "","dwbs": "","psPercent": "NA","hdd": "264.7","cdd": "0","stationNumber": "1106178"}
{"stationName": "POINT ATKINSON","lat": "49.33","lon": "-123.265","province": "BC","tm": "7.6","dwtm": "0","d": "NA","tx": "14.3","dwtx": "0","tn": "2.4","dwtn": "0","s": "","dws": "","sn": "NA","p": "112.4","dwp": "0","pn": "NA","sq": "","pd": "13","bs": "","dwbs": "","psPercent": "NA","hdd": "292.5","cdd": "0","stationNumber": "1106200"}
{"stationName": "RICHMOND DALLYN 2","lat": "49.179","lon": "-123.087","province": "BC","tm": "","dwtm": "","d": "NA","tx": "","dwtx": "","tn": "","dwtn": "","s": "0","dws": "0","sn": "NA","p": "113.8","dwp": "0","pn": "NA","sq": "0","pd": "12","bs": "","dwbs": "","psPercent": "NA","hdd": "","cdd": "","stationNumber": "1106764"}
{"stationName": "RICHMOND NATURE PARK","lat": "49.171","lon": "-123.093","province": "BC","tm": "7.8","dwtm": "1","d": "2.9","tx": "19.5","dwtx": "1","tn": "-3","dwtn": "1","s": "0","dws": "1","sn": "NA","p": "107.4","dwp": "1","pn": "NA","sq": "0","pd": "12","bs": "","dwbs": "","psPercent": "NA","hdd": "275.8","cdd": "0","stationNumber": "1106PF7"}
{"stationName": "SANDHEADS CS","lat": "49.106","lon": "-123.303","province": "BC","tm": "8.2","dwtm": "0","d": "NA","tx": "13.6","dwtx": "0","tn": "3.7","dwtn": "0","s": "","dws": "","sn": "NA","p": "","dwp": "","pn": "NA","sq": "","pd": "","bs": "","dwbs": "","psPercent": "NA","hdd": "274.4","cdd": "0","stationNumber": "1107010"}
{"stationName": "SUMAS CANAL","lat": "49.113","lon": "-122.11","province": "BC","tm": "8.5","dwtm": "11","d": "NA","tx": "16","dwtx": "7","tn": "1.5","dwtn": "7","s": "0","dws": "7","sn": "NA","p": "146.5","dwp": "7","pn": "NA","sq": "","pd": "15","bs": "","dwbs": "","psPercent": "NA","hdd": "161.8","cdd": "0","stationNumber": "1107785"}
{"stationName": "VANCOUVER SEA ISLAND CCG","lat": "49.183","lon": "-123.187","province": "BC","tm": "7.6","dwtm": "0","d": "NA","tx": "14.4","dwtx": "0","tn": "-0.8","dwtn": "0","s": "","dws": "","sn": "NA","p": "94.6","dwp": "0","pn": "NA","sq": "","pd": "13","bs": "","dwbs": "","psPercent": "NA","hdd": "291.3","cdd": "0","stationNumber": "1108380"}
{"stationName": "VANCOUVER INTL A","lat": "49.195","lon": "-123.184","province": "BC","tm": "7.4","dwtm": "0","d": "NA","tx": "14.3","dwtx": "0","tn": "-1.9","dwtn": "0","s": "0","dws": "0","sn": "NA","p": "113.4","dwp": "0","pn": "NA","sq": "0","pd": "15","bs": "","dwbs": "","psPercent": "NA","hdd": "296.4","cdd": "0","stationNumber": "1108395"}
{"stationName": "VANCOUVER HARBOUR CS","lat": "49.295","lon": "-123.122","province": "BC","tm": "8.5","dwtm": "0","d": "NA","tx": "13.1","dwtx": "0","tn": "1.9","dwtn": "0","s": "","dws": "","sn": "NA","p": "130","dwp": "0","pn": "NA","sq": "","pd": "13","bs": "","dwbs": "","psPercent": "NA","hdd": "265.2","cdd": "0","stationNumber": "1108446"}
{"stationName": "WEST VANCOUVER AUT","lat": "49.347","lon": "-123.193","province": "BC","tm": "8.3","dwtm": "0","d": "NA","tx": "13.7","dwtx": "0","tn": "1.7","dwtn": "0","s": "","dws": "","sn": "NA","p": "121.5","dwp": "1","pn": "NA","sq": "","pd": "12","bs": "","dwbs": "","psPercent": "NA","hdd": "270.8","cdd": "0","stationNumber": "1108824"}
{"stationName": "WHISTLER ROUNDHOUSE","lat": "50.068","lon": "-122.947","province": "BC","tm": "-1.2","dwtm": "0","d": "NA","tx": "8","dwtx": "0","tn": "-10","dwtn": "0","s": "59.1","dws": "0","sn": "NA","p": "207.1","dwp": "0","pn": "NA","sq": "144","pd": "11","bs": "","dwbs": "","psPercent": "NA","hdd": "537.1","cdd": "0","stationNumber": "1108906"}
{"stationName": "WHITE ROCK CAMPBELL SCIENTIFIC","lat": "49.018","lon": "-122.784","province": "BC","tm": "9","dwtm": "0","d": "NA","tx": "16.5","dwtx": "0","tn": "0.3","dwtn": "0","s": "","dws": "","sn": "NA","p": "94.8","dwp": "11","pn": "NA","sq": "0","pd": "13","bs": "","dwbs": "","psPercent": "NA","hdd": "252.2","cdd": "0","stationNumber": "1108910"}
{"stationName": "N VAN SEYMOUR HATCHERY","lat": "49.438","lon": "-122.967","province": "BC","tm": "6.8","dwtm": "3","d": "3.8","tx": "13.5","dwtx": "3","tn": "-2","dwtn": "3","s": "0","dws": "3","sn": "NA","p": "178.1","dwp": "3","pn": "NA","sq": "0","pd": "13","bs": "","dwbs": "","psPercent": "NA","hdd": "280.9","cdd": "0","stationNumber": "110N666"}
{"stationName": "HOPE A","lat": "49.368","lon": "-121.498","province": "BC","tm": "7.8","dwtm": "0","d": "NA","tx": "15","dwtx": "0","tn": "-1.2","dwtn": "0","s": "","dws": "","sn": "NA","p": "163.7","dwp": "0","pn": "NA","sq": "","pd": "17","bs": "","dwbs": "","psPercent": "NA","hdd": "286.2","cdd": "0","stationNumber": "1113542"}
{"stationName": "HOPE AIRPORT","lat": "49.37","lon": "-121.493","province": "BC","tm": "7.7","dwtm": "0","d": "NA","tx": "14.9","dwtx": "0","tn": "-1.5","dwtn": "0","s": "","dws": "","sn": "NA","p": "153.8","dwp": "0","pn": "NA","sq": "","pd": "17","bs": "","dwbs": "","psPercent": "NA","hdd": "288.7","cdd": "0","stationNumber": "1113543"}
{"stationName": "HOPE SLIDE","lat": "49.267","lon": "-121.233","province": "BC","tm": "4","dwtm": "0","d": "4.3","tx": "14","dwtx": "0","tn": "-4.5","dwtn": "0","s": "0","dws": "0","sn": "0","p": "94","dwp": "0","pn": "90","sq": "0","pd": "15","bs": "","dwbs": "","psPercent": "NA","hdd": "393.1","cdd": "0","stationNumber": "1113581"}
{"stationName": "LILLOOET","lat": "50.684","lon": "-121.934","province": "BC","tm": "5.2","dwtm": "0","d": "NA","tx": "14.8","dwtx": "0","tn": "-2.8","dwtn": "0","s": "","dws": "","sn": "NA","p": "52.6","dwp": "0","pn": "NA","sq": "","pd": "8","bs": "","dwbs": "","psPercent": "NA","hdd": "359.6","cdd": "0","stationNumber": "1114619"}
{"stationName": "LYTTON A","lat": "50.224","lon": "-121.582","province": "BC","tm": "5.5","dwtm": "2","d": "NA","tx": "14","dwtx": "2","tn": "-3.3","dwtn": "1","s": "","dws": "","sn": "NA","p": "0","dwp": "3","pn": "NA","sq": "","pd": "0","bs": "","dwbs": "","psPercent": "NA","hdd": "326","cdd": "0","stationNumber": "1114738"}
{"stationName": "LYTTON 2","lat": "50.257","lon": "-121.608","province": "BC","tm": "","dwtm": "","d": "NA","tx": "","dwtx": "","tn": "","dwtn": "","s": "0","dws": "24","sn": "NA","p": "58.8","dwp": "24","pn": "NA","sq": "","pd": "3","bs": "","dwbs": "","psPercent": "NA","hdd": "","cdd": "","stationNumber": "1114745"}
{"stationName": "LYTTON RCS","lat": "50.224","lon": "-121.582","province": "BC","tm": "5.6","dwtm": "0","d": "NA","tx": "14.5","dwtx": "0","tn": "-3.4","dwtn": "0","s": "","dws": "","sn": "NA","p": "80.2","dwp": "0","pn": "NA","sq": "0","pd": "7","bs": "","dwbs": "","psPercent": "NA","hdd": "348.5","cdd": "0","stationNumber": "1114746"}
{"stationName": "HEDLEY N","lat": "49.364","lon": "-120.069","province": "BC","tm": "3.6","dwtm": "1","d": "NA","tx": "12","dwtx": "1","tn": "-5","dwtn": "1","s": "2.2","dws": "1","sn": "NA","p": "12.8","dwp": "1","pn": "NA","sq": "0","pd": "5","bs": "","dwbs": "","psPercent": "NA","hdd": "388.6","cdd": "0","stationNumber": "1123370"}
{"stationName": "HEDLEY NP MINE","lat": "49.369","lon": "-120.022","province": "BC","tm": "0.7","dwtm": "6","d": "4.4","tx": "11.5","dwtx": "6","tn": "-8.5","dwtn": "6","s": "8","dws": "6","sn": "NA","p": "8","dwp": "6","pn": "NA","sq": "","pd": "4","bs": "","dwbs": "","psPercent": "NA","hdd": "379.9","cdd": "0","stationNumber": "1123390"}
{"stationName": "JELLICOE","lat": "49.673","lon": "-120.333","province": "BC","tm": "1.7","dwtm": "0","d": "NA","tx": "11.5","dwtx": "0","tn": "-9.5","dwtn": "0","s": "4","dws": "0","sn": "NA","p": "22.8","dwp": "0","pn": "NA","sq": "30","pd": "11","bs": "","dwbs": "","psPercent": "NA","hdd": "457.7","cdd": "0","stationNumber": "1123721"}
{"stationName": "KELOWNA","lat": "49.957","lon": "-119.378","province": "BC","tm": "2.8","dwtm": "0","d": "NA","tx": "12.8","dwtx": "0","tn": "-7.7","dwtn": "0","s": "","dws": "","sn": "NA","p": "33","dwp": "0","pn": "NA","sq": "","pd": "9","bs": "","dwbs": "","psPercent": "NA","hdd": "426.6","cdd": "0","stationNumber": "1123939"}
{"stationName": "KELOWNA UBCO","lat": "49.941","lon": "-119.4","province": "BC","tm": "3.6","dwtm": "0","d": "NA","tx": "13.2","dwtx": "0","tn": "-5.6","dwtn": "0","s": "","dws": "","sn": "NA","p": "23","dwp": "0","pn": "NA","sq": "","pd": "6","bs": "","dwbs": "","psPercent": "NA","hdd": "404.1","cdd": "0","stationNumber": "1123996"}
{"stationName": "KELOWNA MWS0","lat": "49.95","lon": "-119.4","province": "BC","tm": "3.6","dwtm": "0","d": "NA","tx": "13.2","dwtx": "0","tn": "-5.5","dwtn": "0","s": "13.2","dws": "0","sn": "NA","p": "29.2","dwp": "0","pn": "NA","sq": "0","pd": "7","bs": "","dwbs": "","psPercent": "NA","hdd": "402.5","cdd": "0","stationNumber": "11239R0"}
{"stationName": "MERRITT","lat": "50.113","lon": "-120.778","province": "BC","tm": "3.2","dwtm": "0","d": "NA","tx": "13.8","dwtx": "0","tn": "-8.4","dwtn": "0","s": "","dws": "","sn": "NA","p": "0.2","dwp": "27","pn": "NA","sq": "","pd": "0","bs": "","dwbs": "","psPercent": "NA","hdd": "414.9","cdd": "0","stationNumber": "1125073"}
{"stationName": "MERRITT STP","lat": "50.114","lon": "-120.801","province": "BC","tm": "3.9","dwtm": "0","d": "4.4","tx": "13.5","dwtx": "0","tn": "-6.5","dwtn": "0","s": "1.2","dws": "0","sn": "14","p": "8.2","dwp": "0","pn": "42","sq": "0","pd": "4","bs": "","dwbs": "","psPercent": "NA","hdd": "396.2","cdd": "0","stationNumber": "1125079"}
{"stationName": "OKANAGAN CENTRE","lat": "50.056","lon": "-119.445","province": "BC","tm": "3.7","dwtm": "0","d": "2.7","tx": "11.5","dwtx": "0","tn": "-2.5","dwtn": "0","s": "5.6","dws": "0","sn": "72","p": "31.6","dwp": "0","pn": "139","sq": "0","pd": "8","bs": "","dwbs": "","psPercent": "NA","hdd": "399.8","cdd": "0","stationNumber": "1125700"}
{"stationName": "OLIVER STP","lat": "49.179","lon": "-119.545","province": "BC","tm": "6","dwtm": "13","d": "4.6","tx": "15","dwtx": "13","tn": "-5","dwtn": "10","s": "0","dws": "10","sn": "NA","p": "6","dwp": "10","pn": "NA","sq": "","pd": "3","bs": "","dwbs": "","psPercent": "NA","hdd": "179.8","cdd": "0","stationNumber": "1125766"}
{"stationName": "OSOYOOS CS","lat": "49.028","lon": "-119.441","province": "BC","tm": "5.4","dwtm": "0","d": "3.5","tx": "12.8","dwtx": "0","tn": "-5.5","dwtn": "0","s": "","dws": "","sn": "NA","p": "10.1","dwp": "0","pn": "NA","sq": "0","pd": "2","bs": "","dwbs": "","psPercent": "NA","hdd": "352.6","cdd": "0","stationNumber": "1125852"}
{"stationName": "PEACHLAND","lat": "49.783","lon": "-119.717","province": "BC","tm": "4.6","dwtm": "4","d": "3.2","tx": "12.5","dwtx": "4","tn": "-2","dwtn": "4","s": "3","dws": "4","sn": "NA","p": "35.8","dwp": "4","pn": "NA","sq": "0","pd": "9","bs": "","dwbs": "","psPercent": "NA","hdd": "322","cdd": "0","stationNumber": "1126070"}
{"stationName": "PENTICTON A","lat": "49.463","lon": "-119.602","province": "BC","tm": "4.6","dwtm": "0","d": "NA","tx": "13","dwtx": "0","tn": "-5.1","dwtn": "0","s": "1.8","dws": "0","sn": "NA","p": "18.6","dwp": "0","pn": "NA","sq": "","pd": "6","bs": "","dwbs": "","psPercent": "NA","hdd": "376.5","cdd": "0","stationNumber": "1126146"}
{"stationName": "PRINCETON A","lat": "49.468","lon": "-120.513","province": "BC","tm": "1.3","dwtm": "0","d": "3.6","tx": "8.5","dwtx": "0","tn": "-8.5","dwtn": "0","s": "0.4","dws": "0","sn": "2","p": "30.8","dwp": "0","pn": "150","sq": "13","pd": "7","bs": "","dwbs": "","psPercent": "NA","hdd": "468.3","cdd": "0","stationNumber": "1126510"}
{"stationName": "VERNON BELLA VISTA","lat": "50.264","lon": "-119.31","province": "BC","tm": "3","dwtm": "0","d": "3.3","tx": "12.5","dwtx": "0","tn": "-4","dwtn": "0","s": "7.2","dws": "0","sn": "60","p": "38","dwp": "0","pn": "156","sq": "0","pd": "10","bs": "","dwbs": "","psPercent": "NA","hdd": "419.5","cdd": "0","stationNumber": "1128553"}
{"stationName": "VERNON AUTO","lat": "50.223","lon": "-119.194","province": "BC","tm": "2.1","dwtm": "0","d": "NA","tx": "12","dwtx": "0","tn": "-5.4","dwtn": "0","s": "","dws": "","sn": "NA","p": "30.6","dwp": "0","pn": "NA","sq": "","pd": "8","bs": "","dwbs": "","psPercent": "NA","hdd": "445.2","cdd": "0","stationNumber": "1128582"}
{"stationName": "VERNON NORTH","lat": "50.344","lon": "-119.27","province": "BC","tm": "2.2","dwtm": "0","d": "2.4","tx": "9.5","dwtx": "0","tn": "-4","dwtn": "0","s": "19","dws": "0","sn": "141","p": "49","dwp": "0","pn": "195","sq": "0","pd": "11","bs": "","dwbs": "","psPercent": "NA","hdd": "441.2","cdd": "0","stationNumber": "1128583"}
{"stationName": "VERNON SILVER STAR LODGE","lat": "50.359","lon": "-119.056","province": "BC","tm": "-2.3","dwtm": "13","d": "NA","tx": "4.5","dwtx": "2","tn": "-10","dwtn": "13","s": "51","dws": "2","sn": "NA","p": "51","dwp": "2","pn": "NA","sq": "0","pd": "10","bs": "","dwbs": "","psPercent": "NA","hdd": "305.2","cdd": "0","stationNumber": "1128584"}
{"stationName": "WINFIELD","lat": "50.037","lon": "-119.415","province": "BC","tm": "3.4","dwtm": "0","d": "3.4","tx": "11.5","dwtx": "0","tn": "-3","dwtn": "0","s": "9.8","dws": "0","sn": "86","p": "28.6","dwp": "0","pn": "137","sq": "0","pd": "7","bs": "","dwbs": "","psPercent": "NA","hdd": "408.3","cdd": "0","stationNumber": "1128958"}
{"stationName": "PRINCETON CS","lat": "49.465","lon": "-120.51","province": "BC","tm": "0.7","dwtm": "0","d": "NA","tx": "8.7","dwtx": "0","tn": "-9","dwtn": "0","s": "","dws": "","sn": "NA","p": "20","dwp": "0","pn": "NA","sq": "15","pd": "7","bs": "","dwbs": "","psPercent": "NA","hdd": "483.4","cdd": "0","stationNumber": "112FN0M"}
{"stationName": "SUMMERLAND CS","lat": "49.563","lon": "-119.649","province": "BC","tm": "4","dwtm": "0","d": "3.1","tx": "12.9","dwtx": "0","tn": "-4.3","dwtn": "0","s": "","dws": "","sn": "NA","p": "18","dwp": "0","pn": "NA","sq": "","pd": "6","bs": "","dwbs": "","psPercent": "NA","hdd": "392","cdd": "0","stationNumber": "112G8L1"}
{"stationName": "MIDWAY","lat": "49.004","lon": "-118.772","province": "BC","tm": "2.5","dwtm": "0","d": "3.8","tx": "12.5","dwtx": "0","tn": "-8","dwtn": "0","s": "17","dws": "0","sn": "128","p": "30.6","dwp": "0","pn": "119","sq": "0","pd": "6","bs": "","dwbs": "","psPercent": "NA","hdd": "434.4","cdd": "0","stationNumber": "1135126"}
{"stationName": "BILLINGS","lat": "49.017","lon": "-118.228","province": "BC","tm": "2.5","dwtm": "0","d": "3.3","tx": "11.5","dwtx": "0","tn": "-6","dwtn": "0","s": "15.6","dws": "0","sn": "82","p": "30.4","dwp": "0","pn": "92","sq": "0","pd": "7","bs": "","dwbs": "","psPercent": "NA","hdd": "434.4","cdd": "0","stationNumber": "1140876"}
{"stationName": "CASTLEGAR A","lat": "49.296","lon": "-117.633","province": "BC","tm": "3","dwtm": "0","d": "3.2","tx": "12.2","dwtx": "0","tn": "-7.3","dwtn": "0","s": "12.6","dws": "0","sn": "49","p": "62.9","dwp": "0","pn": "123","sq": "0","pd": "8","bs": "","dwbs": "","psPercent": "NA","hdd": "419.6","cdd": "0","stationNumber": "1141455"}
{"stationName": "CASTLEGAR BCHPA DAM","lat": "49.343","lon": "-117.774","province": "BC","tm": "4","dwtm": "0","d": "3.7","tx": "12.5","dwtx": "0","tn": "-3","dwtn": "0","s": "0","dws": "0","sn": "0","p": "30.6","dwp": "0","pn": "69","sq": "0","pd": "8","bs": "","dwbs": "","psPercent": "NA","hdd": "392.6","cdd": "0","stationNumber": "1141457"}
{"stationName": "CRESTON","lat": "49.097","lon": "-116.518","province": "BC","tm": "3.4","dwtm": "0","d": "3.4","tx": "12","dwtx": "0","tn": "-6","dwtn": "0","s": "4","dws": "0","sn": "23","p": "76.2","dwp": "0","pn": "174","sq": "0","pd": "7","bs": "","dwbs": "","psPercent": "NA","hdd": "409.9","cdd": "0","stationNumber": "1142160"}
{"stationName": "DUNCAN LAKE DAM","lat": "50.239","lon": "-116.972","province": "BC","tm": "1.6","dwtm": "0","d": "3.1","tx": "8","dwtx": "0","tn": "-8.5","dwtn": "0","s": "13","dws": "0","sn": "53","p": "82.7","dwp": "0","pn": "147","sq": "0","pd": "11","bs": "","dwbs": "","psPercent": "NA","hdd": "458.8","cdd": "0","stationNumber": "1142574"}
{"stationName": "FAUQUIER","lat": "49.872","lon": "-118.068","province": "BC","tm": "1.9","dwtm": "0","d": "2.5","tx": "9","dwtx": "0","tn": "-6","dwtn": "0","s": "11","dws": "0","sn": "56","p": "52.2","dwp": "0","pn": "118","sq": "0","pd": "10","bs": "","dwbs": "","psPercent": "NA","hdd": "450","cdd": "0","stationNumber": "1142820"}
{"stationName": "KASLO","lat": "49.913","lon": "-116.921","province": "BC","tm": "3","dwtm": "0","d": "3.5","tx": "9","dwtx": "0","tn": "-7","dwtn": "0","s": "11.1","dws": "0","sn": "53","p": "94.9","dwp": "0","pn": "157","sq": "0","pd": "11","bs": "","dwbs": "","psPercent": "NA","hdd": "420.7","cdd": "0","stationNumber": "1143900"}
{"stationName": "LISTER","lat": "49.032","lon": "-116.458","province": "BC","tm": "2.8","dwtm": "0","d": "3","tx": "10.5","dwtx": "0","tn": "-7.5","dwtn": "0","s": "1","dws": "0","sn": "6","p": "53.8","dwp": "0","pn": "163","sq": "0","pd": "4","bs": "","dwbs": "","psPercent": "NA","hdd": "426.7","cdd": "0","stationNumber": "1144635"}
{"stationName": "NAKUSP CS","lat": "50.269","lon": "-117.817","province": "BC","tm": "2.2","dwtm": "0","d": "NA","tx": "9.9","dwtx": "0","tn": "-5.9","dwtn": "0","s": "","dws": "","sn": "NA","p": "81.1","dwp": "0","pn": "NA","sq": "1","pd": "12","bs": "","dwbs": "","psPercent": "NA","hdd": "443.4","cdd": "0","stationNumber": "1145297"}
{"stationName": "NELSON NE","lat": "49.586","lon": "-117.206","province": "BC","tm": "3.4","dwtm": "0","d": "NA","tx": "10","dwtx": "0","tn": "-4.5","dwtn": "0","s": "10.4","dws": "0","sn": "NA","p": "92.4","dwp": "0","pn": "NA","sq": "0","pd": "9","bs": "","dwbs": "","psPercent": "NA","hdd": "407.6","cdd": "0","stationNumber": "1145442"}
{"stationName": "NEW DENVER","lat": "49.996","lon": "-117.37","province": "BC","tm": "2.7","dwtm": "0","d": "3","tx": "9.5","dwtx": "0","tn": "-5","dwtn": "0","s": "9.8","dws": "0","sn": "48","p": "72.8","dwp": "0","pn": "127","sq": "0","pd": "11","bs": "","dwbs": "","psPercent": "NA","hdd": "427.9","cdd": "0","stationNumber": "1145460"}
{"stationName": "NELSON CS","lat": "49.491","lon": "-117.305","province": "BC","tm": "3.6","dwtm": "0","d": "NA","tx": "12.4","dwtx": "0","tn": "-4.8","dwtn": "0","s": "","dws": "","sn": "NA","p": "62.9","dwp": "0","pn": "NA","sq": "0","pd": "8","bs": "","dwbs": "","psPercent": "NA","hdd": "403.8","cdd": "0","stationNumber": "1145M29"}
{"stationName": "WARFIELD RCS","lat": "49.112","lon": "-117.739","province": "BC","tm": "3.3","dwtm": "2","d": "NA","tx": "11.4","dwtx": "2","tn": "-6.4","dwtn": "1","s": "","dws": "","sn": "NA","p": "130.3","dwp": "4","pn": "NA","sq": "","pd": "12","bs": "","dwbs": "","psPercent": "NA","hdd": "382.1","cdd": "0","stationNumber": "1148705"}
{"stationName": "CRESTON CAMPBELL SCIENTIFIC","lat": "49.082","lon": "-116.501","province": "BC","tm": "3.3","dwtm": "0","d": "NA","tx": "11.7","dwtx": "0","tn": "-5.1","dwtn": "0","s": "","dws": "","sn": "NA","p": "63.5","dwp": "0","pn": "NA","sq": "2","pd": "4","bs": "","dwbs": "","psPercent": "NA","hdd": "411.9","cdd": "0","stationNumber": "114B1F0"}
{"stationName": "NELSON RIXEN CREEK","lat": "49.512","lon": "-117.399","province": "BC","tm": "2.1","dwtm": "0","d": "NA","tx": "10.5","dwtx": "0","tn": "-6","dwtn": "0","s": "22","dws": "0","sn": "NA","p": "89.2","dwp": "0","pn": "NA","sq": "12","pd": "10","bs": "","dwbs": "","psPercent": "NA","hdd": "445.7","cdd": "0","stationNumber": "114EMDM"}
{"stationName": "BAYNES LAKE KOOTENAY RIVER","lat": "49.226","lon": "-115.221","province": "BC","tm": "0.5","dwtm": "5","d": "3.7","tx": "12.5","dwtx": "5","tn": "-12.5","dwtn": "5","s": "0","dws": "4","sn": "NA","p": "0.8","dwp": "4","pn": "NA","sq": "0","pd": "0","bs": "","dwbs": "","psPercent": "NA","hdd": "401.6","cdd": "0","stationNumber": "1150690"}
{"stationName": "CRANBROOK A","lat": "49.612","lon": "-115.782","province": "BC","tm": "0.4","dwtm": "0","d": "NA","tx": "10.9","dwtx": "0","tn": "-13.7","dwtn": "0","s": "10","dws": "0","sn": "NA","p": "20.2","dwp": "1","pn": "NA","sq": "0","pd": "5","bs": "","dwbs": "","psPercent": "NA","hdd": "492.5","cdd": "0","stationNumber": "1152105"}
{"stationName": "CRANBROOK AIRPORT AUTO","lat": "49.618","lon": "-115.789","province": "BC","tm": "0.5","dwtm": "0","d": "NA","tx": "10.7","dwtx": "0","tn": "-13.8","dwtn": "0","s": "","dws": "","sn": "NA","p": "16.2","dwp": "0","pn": "NA","sq": "2","pd": "4","bs": "","dwbs": "","psPercent": "NA","hdd": "489.1","cdd": "0","stationNumber": "1152106"}
{"stationName": "FERNIE","lat": "49.489","lon": "-115.073","province": "BC","tm": "1.2","dwtm": "7","d": "5","tx": "13.5","dwtx": "7","tn": "-13","dwtn": "7","s": "4","dws": "7","sn": "NA","p": "78","dwp": "7","pn": "NA","sq": "0","pd": "6","bs": "","dwbs": "","psPercent": "NA","hdd": "353.2","cdd": "0","stationNumber": "1152850"}
{"stationName": "FORDING RIVER COMINCO","lat": "50.149","lon": "-114.855","province": "BC","tm": "-5.4","dwtm": "21","d": "2.7","tx": "8.5","dwtx": "15","tn": "-23.2","dwtn": "15","s": "20.4","dws": "15","sn": "NA","p": "20.4","dwp": "15","pn": "NA","sq": "","pd": "6","bs": "","dwbs": "","psPercent": "NA","hdd": "163.9","cdd": "0","stationNumber": "1152899"}
{"stationName": "FT STEELE DANDY CRK","lat": "49.524","lon": "-115.461","province": "BC","tm": "0.8","dwtm": "14","d": "NA","tx": "13","dwtx": "8","tn": "-12.5","dwtn": "9","s": "1","dws": "8","sn": "NA","p": "9.3","dwp": "8","pn": "NA","sq": "0","pd": "4","bs": "","dwbs": "","psPercent": "NA","hdd": "241.2","cdd": "0","stationNumber": "1153034"}
{"stationName": "KIMBERLEY PCC","lat": "49.631","lon": "-115.962","province": "BC","tm": "-0.5","dwtm": "12","d": "3.6","tx": "10","dwtx": "12","tn": "-13","dwtn": "12","s": "13","dws": "12","sn": "NA","p": "13","dwp": "12","pn": "NA","sq": "2","pd": "3","bs": "","dwbs": "","psPercent": "NA","hdd": "295.5","cdd": "0","stationNumber": "1154203"}
{"stationName": "KOOTENAY NP WEST GATE","lat": "50.631","lon": "-116.061","province": "BC","tm": "0.9","dwtm": "6","d": "5.1","tx": "9","dwtx": "4","tn": "-9.5","dwtn": "6","s": "3.2","dws": "0","sn": "23","p": "13","dwp": "0","pn": "67","sq": "0","pd": "4","bs": "","dwbs": "","psPercent": "NA","hdd": "375.6","cdd": "0","stationNumber": "1154410"}
{"stationName": "SPARWOOD","lat": "49.745","lon": "-114.883","province": "BC","tm": "-0.2","dwtm": "2","d": "4.4","tx": "11","dwtx": "2","tn": "-16","dwtn": "2","s": "5.6","dws": "2","sn": "NA","p": "38.8","dwp": "2","pn": "NA","sq": "0","pd": "4","bs": "","dwbs": "","psPercent": "NA","hdd": "472.6","cdd": "0","stationNumber": "1157630"}
{"stationName": "SPARWOOD CS","lat": "49.745","lon": "-114.884","province": "BC","tm": "-0.5","dwtm": "0","d": "NA","tx": "10.8","dwtx": "0","tn": "-16.2","dwtn": "0","s": "","dws": "","sn": "NA","p": "0","dwp": "27","pn": "NA","sq": "","pd": "0","bs": "","dwbs": "","psPercent": "NA","hdd": "518.3","cdd": "0","stationNumber": "1157631"}
{"stationName": "WARDNER KTNY HATCHERY","lat": "49.473","lon": "-115.46","province": "BC","tm": "1.8","dwtm": "4","d": "4.4","tx": "12","dwtx": "4","tn": "-10.5","dwtn": "4","s": "0","dws": "4","sn": "NA","p": "17.4","dwp": "4","pn": "NA","sq": "0","pd": "3","bs": "","dwbs": "","psPercent": "NA","hdd": "388.1","cdd": "0","stationNumber": "1158692"}
{"stationName": "WASA","lat": "49.807","lon": "-115.631","province": "BC","tm": "1.3","dwtm": "0","d": "4.5","tx": "11","dwtx": "0","tn": "-11.5","dwtn": "0","s": "7.4","dws": "0","sn": "55","p": "19.8","dwp": "0","pn": "107","sq": "0","pd": "5","bs": "","dwbs": "","psPercent": "NA","hdd": "466.5","cdd": "0","stationNumber": "1158730"}
{"stationName": "ASHCROFT","lat": "50.708","lon": "-121.281","province": "BC","tm": "4.6","dwtm": "0","d": "NA","tx": "13.5","dwtx": "0","tn": "-4.2","dwtn": "0","s": "","dws": "","sn": "NA","p": "24.6","dwp": "0","pn": "NA","sq": "","pd": "6","bs": "","dwbs": "","psPercent": "NA","hdd": "375.5","cdd": "0","stationNumber": "1160515"}
{"stationName": "BLUE RIVER A","lat": "52.129","lon": "-119.29","province": "BC","tm": "-0.9","dwtm": "0","d": "3.5","tx": "8.4","dwtx": "0","tn": "-13.8","dwtn": "0","s": "32.6","dws": "0","sn": "66","p": "65.8","dwp": "0","pn": "122","sq": "58","pd": "12","bs": "","dwbs": "","psPercent": "NA","hdd": "528.3","cdd": "0","stationNumber": "1160899"}
{"stationName": "BLUE RIVER CS","lat": "52.129","lon": "-119.29","province": "BC","tm": "-0.4","dwtm": "0","d": "NA","tx": "10.3","dwtx": "0","tn": "-12.6","dwtn": "0","s": "","dws": "","sn": "NA","p": "0.2","dwp": "0","pn": "NA","sq": "","pd": "0","bs": "","dwbs": "","psPercent": "NA","hdd": "515.1","cdd": "0","stationNumber": "1160H99"}
{"stationName": "BUFFALO LAKE","lat": "51.709","lon": "-121.083","province": "BC","tm": "-0.4","dwtm": "1","d": "4","tx": "9.5","dwtx": "1","tn": "-15","dwtn": "1","s": "22.4","dws": "1","sn": "NA","p": "51.6","dwp": "1","pn": "NA","sq": "11","pd": "10","bs": "","dwbs": "","psPercent": "NA","hdd": "497.1","cdd": "0","stationNumber": "1161104"}
{"stationName": "CLEARWATER AUTO","lat": "51.653","lon": "-120.082","province": "BC","tm": "1.3","dwtm": "0","d": "NA","tx": "11","dwtx": "0","tn": "-8.3","dwtn": "0","s": "","dws": "","sn": "NA","p": "48","dwp": "0","pn": "NA","sq": "20","pd": "9","bs": "","dwbs": "","psPercent": "NA","hdd": "468.6","cdd": "0","stationNumber": "1161650"}
{"stationName": "CLINTON (AUT)","lat": "51.145","lon": "-121.505","province": "BC","tm": "0.5","dwtm": "0","d": "NA","tx": "9.4","dwtx": "0","tn": "-11.6","dwtn": "0","s": "","dws": "","sn": "NA","p": "24.5","dwp": "1","pn": "NA","sq": "","pd": "9","bs": "","dwbs": "","psPercent": "NA","hdd": "490.3","cdd": "0","stationNumber": "1161661"}
{"stationName": "CLINTON A","lat": "51.266","lon": "-121.685","province": "BC","tm": "-0.3","dwtm": "0","d": "NA","tx": "10.5","dwtx": "0","tn": "-10.2","dwtn": "0","s": "","dws": "","sn": "NA","p": "13.4","dwp": "0","pn": "NA","sq": "","pd": "4","bs": "","dwbs": "","psPercent": "NA","hdd": "511","cdd": "0","stationNumber": "1161662"}
{"stationName": "CRISS CREEK","lat": "51.03","lon": "-120.728","province": "BC","tm": "-0.2","dwtm": "0","d": "5","tx": "11","dwtx": "0","tn": "-16","dwtn": "0","s": "15.2","dws": "0","sn": "91","p": "26","dwp": "0","pn": "147","sq": "2","pd": "7","bs": "","dwbs": "","psPercent": "NA","hdd": "510.3","cdd": "0","stationNumber": "1162177"}
{"stationName": "DARFIELD","lat": "51.297","lon": "-120.183","province": "BC","tm": "2.1","dwtm": "2","d": "3.9","tx": "12","dwtx": "1","tn": "-4.5","dwtn": "1","s": "21","dws": "1","sn": "NA","p": "38.4","dwp": "1","pn": "NA","sq": "","pd": "10","bs": "","dwbs": "","psPercent": "NA","hdd": "414.3","cdd": "0","stationNumber": "1162265"}
{"stationName": "KAMLOOPS A","lat": "50.703","lon": "-120.449","province": "BC","tm": "4","dwtm": "0","d": "NA","tx": "15.1","dwtx": "0","tn": "-4.5","dwtn": "0","s": "11.8","dws": "0","sn": "NA","p": "27.6","dwp": "0","pn": "NA","sq": "","pd": "8","bs": "","dwbs": "","psPercent": "NA","hdd": "393","cdd": "0","stationNumber": "1163781"}
{"stationName": "KAMLOOPS AUT","lat": "50.702","lon": "-120.442","province": "BC","tm": "4.1","dwtm": "0","d": "NA","tx": "14.8","dwtx": "0","tn": "-4.3","dwtn": "0","s": "","dws": "","sn": "NA","p": "24.5","dwp": "0","pn": "NA","sq": "","pd": "6","bs": "","dwbs": "","psPercent": "NA","hdd": "389.2","cdd": "0","stationNumber": "1163842"}
{"stationName": "100 MILE HOUSE 6NE","lat": "51.681","lon": "-121.217","province": "BC","tm": "-0.6","dwtm": "0","d": "NA","tx": "10","dwtx": "0","tn": "-12","dwtn": "0","s": "29.8","dws": "0","sn": "NA","p": "50.6","dwp": "0","pn": "NA","sq": "11","pd": "9","bs": "","dwbs": "","psPercent": "NA","hdd": "519.7","cdd": "0","stationNumber": "1165793"}
{"stationName": "RED LAKE","lat": "50.935","lon": "-120.8","province": "BC","tm": "1.2","dwtm": "0","d": "5.3","tx": "10","dwtx": "0","tn": "-12","dwtn": "0","s": "19.9","dws": "0","sn": "89","p": "35.7","dwp": "0","pn": "152","sq": "1","pd": "7","bs": "","dwbs": "","psPercent": "NA","hdd": "471.5","cdd": "0","stationNumber": "1166658"}
{"stationName": "SILVER CREEK","lat": "50.545","lon": "-119.35","province": "BC","tm": "1.7","dwtm": "6","d": "2.9","tx": "9","dwtx": "6","tn": "-7","dwtn": "6","s": "15","dws": "6","sn": "NA","p": "48.6","dwp": "6","pn": "NA","sq": "0","pd": "10","bs": "","dwbs": "","psPercent": "NA","hdd": "358.3","cdd": "0","stationNumber": "1167337"}
{"stationName": "SUN PEAKS MOUNTAIN","lat": "50.903","lon": "-119.911","province": "BC","tm": "-4.6","dwtm": "19","d": "NA","tx": "3","dwtx": "19","tn": "-11","dwtn": "19","s": "6","dws": "19","sn": "NA","p": "6","dwp": "19","pn": "NA","sq": "126","pd": "1","bs": "","dwbs": "","psPercent": "NA","hdd": "203","cdd": "0","stationNumber": "1168204"}
{"stationName": "VAVENBY","lat": "51.576","lon": "-119.778","province": "BC","tm": "1.7","dwtm": "0","d": "4.4","tx": "10","dwtx": "0","tn": "-8","dwtn": "0","s": "7","dws": "0","sn": "60","p": "22.4","dwp": "0","pn": "100","sq": "0","pd": "9","bs": "","dwbs": "","psPercent": "NA","hdd": "455.8","cdd": "0","stationNumber": "1168520"}
{"stationName": "KAMLOOPS PRATT ROAD","lat": "50.6","lon": "-120.2","province": "BC","tm": "2.3","dwtm": "0","d": "NA","tx": "11","dwtx": "0","tn": "-4.5","dwtn": "0","s": "16.2","dws": "0","sn": "NA","p": "35","dwp": "0","pn": "NA","sq": "0","pd": "10","bs": "","dwbs": "","psPercent": "NA","hdd": "438.7","cdd": "0","stationNumber": "116C8P0"}
{"stationName": "SALMON ARM CS","lat": "50.703","lon": "-119.291","province": "BC","tm": "2.3","dwtm": "0","d": "2.3","tx": "11.5","dwtx": "0","tn": "-4.9","dwtn": "0","s": "","dws": "","sn": "NA","p": "41.1","dwp": "0","pn": "NA","sq": "0","pd": "7","bs": "","dwbs": "","psPercent": "NA","hdd": "439.3","cdd": "0","stationNumber": "116FRMN"}
{"stationName": "SUN PEAKS LOWER","lat": "50.887","lon": "-119.882","province": "BC","tm": "-1.8","dwtm": "19","d": "NA","tx": "7.5","dwtx": "19","tn": "-13.5","dwtn": "19","s": "4","dws": "19","sn": "NA","p": "4","dwp": "19","pn": "NA","sq": "39","pd": "1","bs": "","dwbs": "","psPercent": "NA","hdd": "178.6","cdd": "0","stationNumber": "116Q20D"}
{"stationName": "SUN PEAKS UPPER","lat": "50.902","lon": "-119.918","province": "BC","tm": "-4.1","dwtm": "2","d": "NA","tx": "2.5","dwtx": "1","tn": "-12","dwtn": "1","s": "37","dws": "1","sn": "NA","p": "37","dwp": "1","pn": "NA","sq": "157","pd": "8","bs": "","dwbs": "","psPercent": "NA","hdd": "574.3","cdd": "0","stationNumber": "116QK0M"}
{"stationName": "GOLDEN A","lat": "51.299","lon": "-116.982","province": "BC","tm": "-0.7","dwtm": "3","d": "4.3","tx": "9","dwtx": "3","tn": "-12.5","dwtn": "3","s": "10","dws": "3","sn": "NA","p": "23.4","dwp": "3","pn": "NA","sq": "13","pd": "3","bs": "","dwbs": "","psPercent": "NA","hdd": "468","cdd": "0","stationNumber": "1173210"}
{"stationName": "GOLDSTREAM RIVER","lat": "51.63","lon": "-118.425","province": "BC","tm": "-0.5","dwtm": "2","d": "3.7","tx": "7","dwtx": "0","tn": "-9","dwtn": "2","s": "50","dws": "0","sn": "81","p": "103","dwp": "0","pn": "155","sq": "67","pd": "16","bs": "","dwbs": "","psPercent": "NA","hdd": "480","cdd": "0","stationNumber": "1173242"}
{"stationName": "MICA DAM","lat": "52.053","lon": "-118.585","province": "BC","tm": "-0.1","dwtm": "2","d": "3.3","tx": "5.5","dwtx": "1","tn": "-8","dwtn": "1","s": "63","dws": "1","sn": "NA","p": "125.5","dwp": "1","pn": "NA","sq": "108","pd": "13","bs": "","dwbs": "","psPercent": "NA","hdd": "469.7","cdd": "0","stationNumber": "1175122"}
{"stationName": "REVELSTOKE A","lat": "50.967","lon": "-118.183","province": "BC","tm": "0.9","dwtm": "0","d": "NA","tx": "9.8","dwtx": "0","tn": "-7.2","dwtn": "0","s": "","dws": "","sn": "NA","p": "87.1","dwp": "0","pn": "NA","sq": "","pd": "11","bs": "","dwbs": "","psPercent": "NA","hdd": "478.8","cdd": "0","stationNumber": "1176745"}
{"stationName": "REVELSTOKE AIRPORT AUTO","lat": "50.958","lon": "-118.176","province": "BC","tm": "1","dwtm": "0","d": "NA","tx": "10.1","dwtx": "0","tn": "-7.4","dwtn": "0","s": "","dws": "","sn": "NA","p": "91.8","dwp": "0","pn": "NA","sq": "37","pd": "11","bs": "","dwbs": "","psPercent": "NA","hdd": "476.1","cdd": "0","stationNumber": "1176755"}
{"stationName": "YOHO PARK","lat": "51.443","lon": "-116.345","province": "BC","tm": "-4.3","dwtm": "0","d": "NA","tx": "5","dwtx": "0","tn": "-22.9","dwtn": "0","s": "","dws": "","sn": "NA","p": "59","dwp": "0","pn": "NA","sq": "84","pd": "11","bs": "","dwbs": "","psPercent": "NA","hdd": "624.9","cdd": "0","stationNumber": "11790J1"}
{"stationName": "YOHO NP EMERALD LAKE","lat": "51.433","lon": "-116.541","province": "BC","tm": "-1.9","dwtm": "5","d": "NA","tx": "15.5","dwtx": "5","tn": "-16","dwtn": "5","s": "24.5","dws": "5","sn": "NA","p": "30.5","dwp": "5","pn": "NA","sq": "0","pd": "7","bs": "","dwbs": "","psPercent": "NA","hdd": "457.4","cdd": "0","stationNumber": "117R00G"}
{"stationName": "YOHO NP OHARA LAKE","lat": "51.356","lon": "-116.337","province": "BC","tm": "-5","dwtm": "0","d": "NA","tx": "5","dwtx": "0","tn": "-23","dwtn": "0","s": "62","dws": "0","sn": "NA","p": "62","dwp": "0","pn": "NA","sq": "89","pd": "13","bs": "","dwbs": "","psPercent": "NA","hdd": "643.2","cdd": "0","stationNumber": "117R00H"}
{"stationName": "CHARLIE LAKE","lat": "56.298","lon": "-121.017","province": "BC","tm": "-8","dwtm": "2","d": "NA","tx": "12","dwtx": "1","tn": "-30","dwtn": "2","s": "23","dws": "1","sn": "NA","p": "23","dwp": "1","pn": "NA","sq": "70","pd": "5","bs": "","dwbs": "","psPercent": "NA","hdd": "676.5","cdd": "0","stationNumber": "11814FR"}
{"stationName": "CHETWYND A","lat": "55.687","lon": "-121.627","province": "BC","tm": "-5.9","dwtm": "0","d": "1.3","tx": "11.7","dwtx": "0","tn": "-28.1","dwtn": "0","s": "90.8","dws": "0","sn": "400","p": "43.9","dwp": "0","pn": "271","sq": "13","pd": "6","bs": "","dwbs": "","psPercent": "NA","hdd": "669.2","cdd": "0","stationNumber": "1181508"}
{"stationName": "DAWSON CREEK A","lat": "55.742","lon": "-120.183","province": "BC","tm": "-8.6","dwtm": "0","d": "NA","tx": "11.1","dwtx": "0","tn": "-29.2","dwtn": "0","s": "","dws": "","sn": "NA","p": "9.6","dwp": "0","pn": "NA","sq": "","pd": "3","bs": "","dwbs": "","psPercent": "NA","hdd": "744.4","cdd": "0","stationNumber": "1182289"}
{"stationName": "FORT ST. JOHN A","lat": "56.238","lon": "-120.74","province": "BC","tm": "-9.6","dwtm": "0","d": "NA","tx": "9.7","dwtx": "0","tn": "-29.2","dwtn": "0","s": "35.3","dws": "1","sn": "NA","p": "37.6","dwp": "1","pn": "NA","sq": "16","pd": "8","bs": "","dwbs": "","psPercent": "NA","hdd": "771.5","cdd": "0","stationNumber": "1183001"}
{"stationName": "MACKENZIE","lat": "55.299","lon": "-123.133","province": "BC","tm": "-6.1","dwtm": "1","d": "NA","tx": "7.3","dwtx": "1","tn": "-24.5","dwtn": "1","s": "","dws": "","sn": "NA","p": "38","dwp": "1","pn": "NA","sq": "","pd": "2","bs": "","dwbs": "","psPercent": "NA","hdd": "650.9","cdd": "0","stationNumber": "1184791"}
{"stationName": "MACKENZIE AIRPORT AUTO","lat": "55.305","lon": "-123.138","province": "BC","tm": "-5.8","dwtm": "0","d": "NA","tx": "7.5","dwtx": "0","tn": "-23.8","dwtn": "0","s": "","dws": "","sn": "NA","p": "49.1","dwp": "0","pn": "NA","sq": "42","pd": "8","bs": "","dwbs": "","psPercent": "NA","hdd": "665","cdd": "0","stationNumber": "1184793"}
{"stationName": "SIKANNI CHIEF","lat": "57.25","lon": "-122.718","province": "BC","tm": "-8","dwtm": "6","d": "NA","tx": "11","dwtx": "6","tn": "-34.2","dwtn": "6","s": "68","dws": "6","sn": "NA","p": "68","dwp": "6","pn": "NA","sq": "26","pd": "6","bs": "","dwbs": "","psPercent": "NA","hdd": "572.6","cdd": "0","stationNumber": "1187335"}
{"stationName": "DEASE LAKE A","lat": "58.422","lon": "-130.031","province": "BC","tm": "-11.2","dwtm": "0","d": "NA","tx": "5.7","dwtx": "0","tn": "-34.7","dwtn": "0","s": "","dws": "","sn": "NA","p": "15.2","dwp": "0","pn": "NA","sq": "","pd": "3","bs": "","dwbs": "","psPercent": "NA","hdd": "816.5","cdd": "0","stationNumber": "1192341"}
{"stationName": "FORT NELSON A","lat": "58.836","lon": "-122.597","province": "BC","tm": "-14.7","dwtm": "0","d": "NA","tx": "11.7","dwtx": "0","tn": "-37.5","dwtn": "0","s": "40.1","dws": "0","sn": "NA","p": "36","dwp": "0","pn": "NA","sq": "46","pd": "9","bs": "","dwbs": "","psPercent": "NA","hdd": "916","cdd": "0","stationNumber": "1192946"}
{"stationName": "FORT NELSON UA","lat": "58.841","lon": "-122.573","province": "BC","tm": "-13.7","dwtm": "0","d": "NA","tx": "11.5","dwtx": "0","tn": "-35.5","dwtn": "0","s": "33.5","dws": "0","sn": "NA","p": "33.5","dwp": "0","pn": "NA","sq": "46","pd": "5","bs": "","dwbs": "","psPercent": "NA","hdd": "888.7","cdd": "0","stationNumber": "1192950"}
{"stationName": "DEASE LAKE (AUT)","lat": "58.426","lon": "-130.026","province": "BC","tm": "-11.3","dwtm": "0","d": "NA","tx": "5.7","dwtx": "0","tn": "-34.8","dwtn": "0","s": "","dws": "","sn": "NA","p": "9.7","dwp": "0","pn": "NA","sq": "48","pd": "3","bs": "","dwbs": "","psPercent": "NA","hdd": "819.2","cdd": "0","stationNumber": "119BLM0"}
{"stationName": "ATLIN","lat": "59.567","lon": "-133.7","province": "BC","tm": "-8.8","dwtm": "0","d": "1.9","tx": "7.5","dwtx": "0","tn": "-31","dwtn": "0","s": "9.8","dws": "0","sn": "41","p": "9.8","dwp": "0","pn": "39","sq": "11","pd": "4","bs": "","dwbs": "","psPercent": "NA","hdd": "750.6","cdd": "0","stationNumber": "1200560"}
{"stationName": "PLEASANT CAMP","lat": "59.45","lon": "-136.367","province": "BC","tm": "-4.4","dwtm": "0","d": "1.1","tx": "5","dwtx": "0","tn": "-22","dwtn": "0","s": "29","dws": "0","sn": "26","p": "71.4","dwp": "0","pn": "51","sq": "0","pd": "11","bs": "","dwbs": "","psPercent": "NA","hdd": "625.9","cdd": "0","stationNumber": "1206197"}
{"stationName": "BEAVER CREEK A","lat": "62.41","lon": "-140.868","province": "YT","tm": "-20","dwtm": "0","d": "-0.2","tx": "21","dwtx": "0","tn": "-46","dwtn": "0","s": "0","dws": "0","sn": "0","p": "0","dwp": "0","pn": "0","sq": "36","pd": "0","bs": "","dwbs": "","psPercent": "NA","hdd": "1064.6","cdd": "0","stationNumber": "2100160"}
{"stationName": "BURWASH A","lat": "61.371","lon": "-139.04","province": "YT","tm": "-15.9","dwtm": "0","d": "NA","tx": "9.4","dwtx": "0","tn": "-42.9","dwtn": "0","s": "","dws": "","sn": "NA","p": "0","dwp": "1","pn": "NA","sq": "","pd": "0","bs": "","dwbs": "","psPercent": "NA","hdd": "948.5","cdd": "0","stationNumber": "2100181"}
{"stationName": "BURWASH A","lat": "61.367","lon": "-139.05","province": "YT","tm": "-15.7","dwtm": "0","d": "0.7","tx": "11","dwtx": "0","tn": "-43.5","dwtn": "0","s": "2","dws": "0","sn": "19","p": "0.2","dwp": "0","pn": "3","sq": "5","pd": "0","bs": "","dwbs": "","psPercent": "NA","hdd": "943.1","cdd": "0","stationNumber": "2100182"}
{"stationName": "BURWASH AIRPORT AUTO BC","lat": "61.367","lon": "-139.017","province": "YT","tm": "-16.2","dwtm": "0","d": "NA","tx": "9.7","dwtx": "0","tn": "-43.7","dwtn": "0","s": "","dws": "","sn": "NA","p": "0.4","dwp": "0","pn": "NA","sq": "1","pd": "0","bs": "","dwbs": "","psPercent": "NA","hdd": "956.9","cdd": "0","stationNumber": "2100184"}
{"stationName": "CARMACKS CS","lat": "62.115","lon": "-136.192","province": "YT","tm": "-17.1","dwtm": "0","d": "NA","tx": "10.6","dwtx": "0","tn": "-43.5","dwtn": "0","s": "","dws": "","sn": "NA","p": "5.8","dwp": "0","pn": "NA","sq": "31","pd": "2","bs": "","dwbs": "","psPercent": "NA","hdd": "982.2","cdd": "0","stationNumber": "2100301"}
{"stationName": "DAWSON A","lat": "64.043","lon": "-139.128","province": "YT","tm": "-20.7","dwtm": "0","d": "0.8","tx": "3","dwtx": "0","tn": "-47.1","dwtn": "0","s": "15.2","dws": "0","sn": "84","p": "15.8","dwp": "0","pn": "123","sq": "46","pd": "3","bs": "","dwbs": "","psPercent": "NA","hdd": "1083.5","cdd": "0","stationNumber": "2100402"}
{"stationName": "FARO A","lat": "62.207","lon": "-133.373","province": "YT","tm": "-16.2","dwtm": "0","d": "-0.8","tx": "6.8","dwtx": "0","tn": "-44.8","dwtn": "0","s": "5.4","dws": "0","sn": "37","p": "4.4","dwp": "0","pn": "36","sq": "35","pd": "1","bs": "","dwbs": "","psPercent": "NA","hdd": "958","cdd": "0","stationNumber": "2100517"}
{"stationName": "FARO (AUT)","lat": "62.208","lon": "-133.376","province": "YT","tm": "-16.4","dwtm": "0","d": "NA","tx": "6.8","dwtx": "0","tn": "-44.8","dwtn": "0","s": "","dws": "","sn": "NA","p": "5.2","dwp": "0","pn": "NA","sq": "","pd": "2","bs": "","dwbs": "","psPercent": "NA","hdd": "963.2","cdd": "0","stationNumber": "2100518"}
{"stationName": "HAINES JUNCTION","lat": "60.773","lon": "-137.58","province": "YT","tm": "-12.6","dwtm": "0","d": "NA","tx": "10.1","dwtx": "0","tn": "-38.9","dwtn": "0","s": "","dws": "","sn": "NA","p": "6.8","dwp": "0","pn": "NA","sq": "24","pd": "2","bs": "","dwbs": "","psPercent": "NA","hdd": "856.6","cdd": "0","stationNumber": "2100630"}
{"stationName": "IVVAVIK NAT. PARK","lat": "69.164","lon": "-140.15","province": "YT","tm": "-21.3","dwtm": "0","d": "NA","tx": "-2.3","dwtx": "0","tn": "-40.2","dwtn": "0","s": "","dws": "","sn": "NA","p": "1.3","dwp": "2","pn": "NA","sq": "11","pd": "0","bs": "","dwbs": "","psPercent": "NA","hdd": "1099.8","cdd": "0","stationNumber": "2100660"}
{"stationName": "KOMAKUK BEACH","lat": "69.612","lon": "-140.197","province": "YT","tm": "-19.2","dwtm": "2","d": "NA","tx": "-0.2","dwtx": "1","tn": "-37.8","dwtn": "1","s": "","dws": "","sn": "NA","p": "","dwp": "","pn": "NA","sq": "","pd": "","bs": "","dwbs": "","psPercent": "NA","hdd": "968.2","cdd": "0","stationNumber": "2100682"}
{"stationName": "MACMILLAN PASS","lat": "63.244","lon": "-130.037","province": "YT","tm": "-17.1","dwtm": "0","d": "NA","tx": "2.4","dwtx": "0","tn": "-40.9","dwtn": "0","s": "","dws": "","sn": "NA","p": "12.2","dwp": "2","pn": "NA","sq": "93","pd": "2","bs": "","dwbs": "","psPercent": "NA","hdd": "982","cdd": "0","stationNumber": "2100693"}
{"stationName": "MARGARET LAKE","lat": "68.801","lon": "-140.848","province": "YT","tm": "-27.3","dwtm": "6","d": "NA","tx": "-5.6","dwtx": "6","tn": "-42.3","dwtn": "4","s": "","dws": "","sn": "NA","p": "","dwp": "","pn": "NA","sq": "","pd": "","bs": "","dwbs": "","psPercent": "NA","hdd": "997.5","cdd": "0","stationNumber": "2100697"}
{"stationName": "MAYO A","lat": "63.616","lon": "-135.868","province": "YT","tm": "-18.5","dwtm": "0","d": "NA","tx": "4.8","dwtx": "0","tn": "-48.2","dwtn": "0","s": "18.4","dws": "0","sn": "NA","p": "8.6","dwp": "1","pn": "NA","sq": "32","pd": "3","bs": "","dwbs": "","psPercent": "NA","hdd": "1023.3","cdd": "0","stationNumber": "2100701"}
{"stationName": "MAYO ROAD","lat": "60.876","lon": "-135.183","province": "YT","tm": "-14.2","dwtm": "0","d": "-1.2","tx": "9","dwtx": "0","tn": "-43.5","dwtn": "0","s": "6","dws": "0","sn": "43","p": "6","dwp": "0","pn": "43","sq": "0","pd": "2","bs": "","dwbs": "","psPercent": "NA","hdd": "902.9","cdd": "0","stationNumber": "2100709"}
{"stationName": "OLD CROW A","lat": "67.571","lon": "-139.839","province": "YT","tm": "-18.7","dwtm": "5","d": "7.8","tx": "19.9","dwtx": "5","tn": "-46.6","dwtn": "5","s": "13","dws": "5","sn": "NA","p": "9","dwp": "5","pn": "NA","sq": "86","pd": "2","bs": "","dwbs": "","psPercent": "NA","hdd": "844.5","cdd": "0","stationNumber": "2100800"}
{"stationName": "OLD CROW RCS","lat": "67.571","lon": "-139.839","province": "YT","tm": "-24.5","dwtm": "0","d": "NA","tx": "-2","dwtx": "0","tn": "-49.7","dwtn": "0","s": "","dws": "","sn": "NA","p": "7.3","dwp": "1","pn": "NA","sq": "36","pd": "2","bs": "","dwbs": "","psPercent": "NA","hdd": "1191.1","cdd": "0","stationNumber": "2100805"}
